stop_lat,zone_id,stop_lon,stop_url,stop_id,stop_name,location_type,stop_code
49.8502350543,,-97.2064888077,https://winnipegtransit.com/stops/60416,60416,Eastbound Taylor at Kenaston East,0,60416
49.8504067236,,-97.2065380989,https://winnipegtransit.com/stops/60417,60417,Westbound Taylor at Kenaston East,0,60417
49.7876115899,,-97.1788624116,https://winnipegtransit.com/stops/61178,61178,Eastbound John Angus at Gelley,0,61178
49.7881153708,,-97.1748699412,https://winnipegtransit.com/stops/61179,61179,Eastbound John Angus at Brookstone,0,61179
49.8020880136,,-97.1825024631,https://winnipegtransit.com/stops/61170,61170,Eastbound Bridgeland at Maple Creek,0,61170
49.8037218013,,-97.1777159285,https://winnipegtransit.com/stops/61171,61171,Eastbound Bridgeland at Poplar Point,0,61171
49.8043645056,,-97.1762602729,https://winnipegtransit.com/stops/61172,61172,Northbound Bridgeland at Whitewood,0,61172
49.7881217421,,-97.1724244227,https://winnipegtransit.com/stops/61173,61173,Westbound Sandusky at Craigmohr,0,61173
49.7845169062,,-97.1845632827,https://winnipegtransit.com/stops/61176,61176,Northbound John Angus at Tellier,0,61176
49.7861321371,,-97.1831691674,https://winnipegtransit.com/stops/61177,61177,Eastbound John Angus at Brookstone West,0,61177
49.8952108281,,-97.1522016668,https://winnipegtransit.com/stops/10709,10709,Northbound Balmoral at Qu'Appelle,0,10709
49.8889764215,,-97.1482072939,https://winnipegtransit.com/stops/10703,10703,Northbound Vaughan at St. Mary,0,10703
49.8866064878,,-97.1456945887,https://winnipegtransit.com/stops/10702,10702,Southbound Kennedy at Broadway,0,10702
49.8880855932,,-97.1465010919,https://winnipegtransit.com/stops/10701,10701,Southbound Kennedy at York,0,10701
49.8895644705,,-97.147293729,https://winnipegtransit.com/stops/10700,10700,Southbound Kennedy at St. Mary,0,10700
49.8918431412,,-97.1497266114,https://winnipegtransit.com/stops/10707,10707,Northbound Vaughan at Portage North,0,10707
49.8912357276,,-97.1494296064,https://winnipegtransit.com/stops/10706,10706,Northbound Vaughan at Portage South,0,10706
49.890419107,,-97.1489874585,https://winnipegtransit.com/stops/10704,10704,Northbound Vaughan at Graham (The Bay),0,10704
49.9422716519,,-97.1459554231,https://winnipegtransit.com/stops/30411,30411,Westbound Jefferson at Airlies East,0,30411
49.9507454308,,-97.1247611677,https://winnipegtransit.com/stops/30410,30410,Westbound Templeton at McGregor,0,30410
49.940491184,,-97.1403790963,https://winnipegtransit.com/stops/30413,30413,Westbound Jefferson at Teakwood,0,30413
49.941400435,,-97.1432291976,https://winnipegtransit.com/stops/30412,30412,Westbound Jefferson at Sinclair,0,30412
49.9409892104,,-97.1428268791,https://winnipegtransit.com/stops/30415,30415,Northbound Sinclair at Jefferson,0,30415
49.9402808486,,-97.1401641964,https://winnipegtransit.com/stops/30414,30414,Eastbound Jefferson at Teakwood,0,30414
49.942127375,,-97.1459330863,https://winnipegtransit.com/stops/30417,30417,Eastbound Jefferson at Airlies East,0,30417
49.9411995409,,-97.1430417938,https://winnipegtransit.com/stops/30416,30416,Eastbound Jefferson at Sinclair,0,30416
49.9433768074,,-97.1498157184,https://winnipegtransit.com/stops/30419,30419,Eastbound Jefferson at Tulip,0,30419
49.942818375,,-97.1480809075,https://winnipegtransit.com/stops/30418,30418,Eastbound Jefferson at Airlies West,0,30418
49.7700955329,,-97.2022821679,https://winnipegtransit.com/stops/62088,62088,Westbound Ken Oblik at Youngstown,0,62088
49.7708378584,,-97.1898937988,https://winnipegtransit.com/stops/62085,62085,Westbound Ken Oblik at Hughes,0,62085
49.7733828186,,-97.1887017209,https://winnipegtransit.com/stops/62084,62084,Southbound Ken Oblik at Northwater,0,62084
49.7701836685,,-97.1986956834,https://winnipegtransit.com/stops/62087,62087,Westbound Ken Oblik at Florence,0,62087
49.7702124466,,-97.19419475,https://winnipegtransit.com/stops/62086,62086,Westbound Ken Oblik at Crystal Lake,0,62086
49.8139984683,,-97.1592307773,https://winnipegtransit.com/stops/62081,62081,Northbound Chancellor at Lake Village,0,62081
49.7798380506,,-97.2000185222,https://winnipegtransit.com/stops/62080,62080,Westbound Skyline at Highpark,0,62080
49.7749210566,,-97.191005642,https://winnipegtransit.com/stops/62083,62083,Eastbound Ken Oblik at Ken Wong,0,62083
49.8417902702,,-97.2083313139,https://winnipegtransit.com/stops/62082,62082,Westbound Sterling Lyon at Kenaston,0,62082
49.9121945089,,-97.0814879714,https://winnipegtransit.com/stops/40320,40320,Eastbound Munroe at London,0,40320
49.8806562368,,-97.2872815262,https://winnipegtransit.com/stops/20258,20258,Eastbound Portage at Daer,0,20258
49.8804266077,,-97.2857445343,https://winnipegtransit.com/stops/20259,20259,Eastbound Portage at Golf,0,20259
49.9039181182,,-97.0890444629,https://winnipegtransit.com/stops/40321,40321,Eastbound Talbot at Cameron,0,40321
49.8825096366,,-97.3074981992,https://winnipegtransit.com/stops/20252,20252,Eastbound Portage at Bedson,0,20252
49.8828616733,,-97.3038943595,https://winnipegtransit.com/stops/20253,20253,Eastbound Portage at Seaton,0,20253
49.8820556904,,-97.3115231539,https://winnipegtransit.com/stops/20251,20251,Eastbound Portage at David,0,20251
49.8817981355,,-97.2945632306,https://winnipegtransit.com/stops/20256,20256,Eastbound Portage at Parkdale,0,20256
49.8808837893,,-97.2886794049,https://winnipegtransit.com/stops/20257,20257,Eastbound Portage at Banting,0,20257
49.8824956027,,-97.2991742001,https://winnipegtransit.com/stops/20254,20254,Eastbound Portage at Rouge,0,20254
49.882174579,,-97.2969164455,https://winnipegtransit.com/stops/20255,20255,Eastbound Portage at Muriel,0,20255
49.9373075172,,-97.0603661137,https://winnipegtransit.com/stops/40742,40742,Northbound Gateway at Jim Smith,0,40742
49.9418965939,,-97.0545647844,https://winnipegtransit.com/stops/40743,40743,Northbound Gateway at Sun Valley,0,40743
49.9343993938,,-97.0441640114,https://winnipegtransit.com/stops/40740,40740,Westbound Sun Valley at Alberhill,0,40740
49.9349372152,,-97.0451177558,https://winnipegtransit.com/stops/40741,40741,Westbound Sun Valley at St. Moritz,0,40741
49.9360539076,,-97.0628553093,https://winnipegtransit.com/stops/40746,40746,Northbound Raleigh at Springfield,0,40746
49.9434180182,,-97.053569615,https://winnipegtransit.com/stops/40747,40747,Northbound Raleigh at McIvor South,0,40747
49.9416805286,,-97.0550891926,https://winnipegtransit.com/stops/40744,40744,Southbound Gateway at Sun Valley,0,40744
49.9369856558,,-97.0610201217,https://winnipegtransit.com/stops/40745,40745,Southbound Gateway at Jim Smith,0,40745
49.9131909166,,-97.0851676535,https://winnipegtransit.com/stops/40324,40324,Northbound Grey at Munroe,0,40324
49.9363491464,,-97.0627598503,https://winnipegtransit.com/stops/40749,40749,Southbound Raleigh at Springfield,0,40749
49.9119542834,,-97.0870831649,https://winnipegtransit.com/stops/40325,40325,Northbound Grey at Hoskin,0,40325
49.9096916415,,-97.0900559242,https://winnipegtransit.com/stops/40327,40327,Northbound Grey at Harbison,0,40327
49.9460378547,,-97.1918654209,https://winnipegtransit.com/stops/30641,30641,Westbound Inkster at Paramount,0,30641
49.811578412,,-97.0952972969,https://winnipegtransit.com/stops/50419,50419,Eastbound Warde at Dakota West,0,50419
49.8380788153,,-97.1030043162,https://winnipegtransit.com/stops/50413,50413,Westbound Beliveau at Kearney,0,50413
49.8378143745,,-97.1033345488,https://winnipegtransit.com/stops/50412,50412,Eastbound Beliveau at Kearney,0,50412
49.8367758282,,-97.1063792422,https://winnipegtransit.com/stops/50411,50411,Eastbound Beliveau at Eric,0,50411
49.8370232091,,-97.1061053311,https://winnipegtransit.com/stops/50410,50410,Westbound Beliveau at Eric,0,50410
49.8409038639,,-97.0948266033,https://winnipegtransit.com/stops/50417,50417,Westbound Beliveau at St. Anne's,0,50417
49.8409232789,,-97.0943668472,https://winnipegtransit.com/stops/50416,50416,Eastbound Beliveau at St. Anne's,0,50416
49.8390234083,,-97.1002691329,https://winnipegtransit.com/stops/50415,50415,Westbound Beliveau at Beechtree,0,50415
49.8389307764,,-97.100105864,https://winnipegtransit.com/stops/50414,50414,Eastbound Beliveau at Beechtree,0,50414
49.8811909159,,-97.1992170096,https://winnipegtransit.com/stops/10880,10880,Northbound Polo Park at Polo Park (74),0,10880
49.8936029271,,-97.1366264807,https://winnipegtransit.com/stops/10710,10710_merged_67104,Eastbound William Stephenson at Portage and Main Junction,0,10710
49.8571952542,,-97.1559897108,https://winnipegtransit.com/stops/60902,60902,Westbound Taylor at Harrow,0,60902
49.816349251,,-97.1526494617,https://winnipegtransit.com/stops/60903,60903,Southbound Chancellor at Pembina,0,60903
49.8272261657,,-97.0852551594,https://winnipegtransit.com/stops/50675,50675,Southbound St Anne's at Novavista,0,50675
49.8088992912,,-97.203944558,https://winnipegtransit.com/stops/60901,60901,Eastbound Columbia at Westmoreland,0,60901
49.8282163272,,-97.094560377,https://winnipegtransit.com/stops/50673,50673,Northbound Ashworth at Woodydell,0,50673
49.8266200732,,-97.0932187205,https://winnipegtransit.com/stops/50672,50672,Northbound Ashworth at Whitley,0,50672
49.824739635,,-97.0915546311,https://winnipegtransit.com/stops/50671,50671,Northbound Ashworth at Novavista,0,50671
49.8230287796,,-97.0903567166,https://winnipegtransit.com/stops/50670,50670,Southbound Ashworth at Harlesden,0,50670
49.825712167,,-97.1964949023,https://winnipegtransit.com/stops/60908,60908,Southbound Lindenwood at Fairhaven,0,60908
49.8252415543,,-97.1957337669,https://winnipegtransit.com/stops/60909,60909,Northbound Lindenwood at Fairhaven,0,60909
49.8302313352,,-97.0962055084,https://winnipegtransit.com/stops/50679,50679,Northbound Ashworth at Wales,0,50679
49.825100727,,-97.1130226012,https://winnipegtransit.com/stops/50678,50678,Westbound Meadowood at St. Mary's,0,50678
49.7919811428,,-97.1971090199,https://winnipegtransit.com/stops/61233,61233,Northbound Centre at Park West North,0,61233
49.7956468404,,-97.1979872778,https://winnipegtransit.com/stops/61232,61232,Northbound Centre at Cooper's Town,0,61232
49.7941572317,,-97.1976396048,https://winnipegtransit.com/stops/61231,61231,Northbound Centre at Bison,0,61231
49.7930828888,,-97.197387693,https://winnipegtransit.com/stops/61230,61230,Northbound Centre at Jacob's Creek,0,61230
49.8257449493,,-97.1693661978,https://winnipegtransit.com/stops/61237,61237,Eastbound Chevrier at Hamelin,0,61237
49.8230728488,,-97.1773087186,https://winnipegtransit.com/stops/61236,61236,Eastbound Chevrier at Gamble,0,61236
49.8384090847,,-97.2136300695,https://winnipegtransit.com/stops/61235,61235,Westbound Seasons of Tuxedo at IKEA South,0,61235
49.7979982058,,-97.1970662045,https://winnipegtransit.com/stops/61234,61234,Northbound Centre at North Town,0,61234
49.8246009424,,-97.2066027583,https://winnipegtransit.com/stops/61239,61239,Southbound Kenaston Common at Kenaston,0,61239
49.827051089,,-97.1655069753,https://winnipegtransit.com/stops/61238,61238,Eastbound Chevrier at Trottier,0,61238
49.9145940096,,-97.1147552551,https://winnipegtransit.com/stops/40630,40630,Southbound Henderson at Johnson,0,40630
49.8081616887,,-97.0921094449,https://winnipegtransit.com/stops/51106,51106,Southbound Dakota at John Forsyth,0,51106
49.8565726415,,-97.0997061829,https://winnipegtransit.com/stops/51107,51107,Eastbound Alpine at Alpine,0,51107
49.8284983176,,-97.1051590412,https://winnipegtransit.com/stops/51104,51104,Northbound Dakota at Meadowood,0,51104
49.8092389803,,-97.0925257779,https://winnipegtransit.com/stops/51105,51105,Northbound Dakota at John Forsyth,0,51105
49.8710511672,,-97.0728337904,https://winnipegtransit.com/stops/51102,51102,Westbound Elizabeth at Speers,0,51102
49.8423379827,,-97.1126297289,https://winnipegtransit.com/stops/51103,51103,Southbound St Mary's at St. Vital,0,51103
49.8565520657,,-97.1000965642,https://winnipegtransit.com/stops/51108,51108,Westbound Alpine at Alpine,0,51108
49.7655987535,,-97.1566069359,https://winnipegtransit.com/stops/60018,60018,Northbound Villeneuve at Gendreau,0,60018
49.7698795377,,-97.1673052869,https://winnipegtransit.com/stops/60019,60019,Westbound Grandmont at Le Maire,0,60019
49.7678859777,,-97.1590199862,https://winnipegtransit.com/stops/60014,60014,Westbound Ducharme at Villeneuve,0,60014
49.8469556775,,-97.1940073042,https://winnipegtransit.com/stops/60015,60015,Westbound Wilkes at Carpenter,0,60015
49.7672603531,,-97.1604046807,https://winnipegtransit.com/stops/60016,60016,Eastbound Ducharme at Houde,0,60016
49.7658233957,,-97.1639447801,https://winnipegtransit.com/stops/60017,60017,Eastbound Ducharme at le Maire,0,60017
49.8177516368,,-97.1525960536,https://winnipegtransit.com/stops/60010,60010,Eastbound Abinojii Mikanah Ramp EB to Pembina at Pembina,0,60010
49.8469445239,,-97.1909891473,https://winnipegtransit.com/stops/60013,60013,Westbound Wilkes at Villa Nova,0,60013
49.8943615888,,-97.2028204689,https://winnipegtransit.com/stops/20089,20089,Westbound Ellice at Century,0,20089
49.8941429774,,-97.2009070736,https://winnipegtransit.com/stops/20088,20088,Eastbound Ellice at St. James,0,20088
49.8982823599,,-97.2097209575,https://winnipegtransit.com/stops/20087,20087,Southbound Berry at Sargent,0,20087
49.8979739086,,-97.2095513474,https://winnipegtransit.com/stops/20086,20086,Northbound Berry at Sargent,0,20086
49.897817337,,-97.2029288016,https://winnipegtransit.com/stops/20084,20084,Eastbound Sargent at Century,0,20084
49.8979647624,,-97.202575196,https://winnipegtransit.com/stops/20083,20083,Westbound Sargent at Century,0,20083
49.8977349927,,-97.200522824,https://winnipegtransit.com/stops/20082,20082,Eastbound Sargent at St. James,0,20082
49.9014188638,,-97.2031570619,https://winnipegtransit.com/stops/20081,20081,Westbound Wellington at Century,0,20081
49.9014564922,,-97.2044229425,https://winnipegtransit.com/stops/20080,20080,Westbound Wellington at Bradford,0,20080
49.9163699666,,-97.1957336499,https://winnipegtransit.com/stops/10390,10390,Eastbound Notre Dame at Keewatin,0,10390
49.9154070381,,-97.1939725991,https://winnipegtransit.com/stops/10391,10391,Westbound Notre Dame at Worth,0,10391
49.9154576319,,-97.1943328937,https://winnipegtransit.com/stops/10392,10392,Eastbound Notre Dame at Worth,0,10392
49.9140775988,,-97.1929357429,https://winnipegtransit.com/stops/10393,10393,Eastbound Notre Dame at Bannatyne,0,10393
49.9143738245,,-97.1928968099,https://winnipegtransit.com/stops/10394,10394,Westbound Notre Dame at Bannatyne,0,10394
49.9128330472,,-97.1915753909,https://winnipegtransit.com/stops/10395,10395,Eastbound Notre Dame at Cecil,0,10395
49.9130203088,,-97.1914708795,https://winnipegtransit.com/stops/10396,10396,Westbound Notre Dame at Cecil,0,10396
49.9012013583,,-97.195533656,https://winnipegtransit.com/stops/10397,10397,Westbound Wellington at Empress,0,10397
49.9120602956,,-97.1904760307,https://winnipegtransit.com/stops/10398,10398,Westbound Notre Dame at Winnipeg,0,10398
49.9106998422,,-97.1880336902,https://winnipegtransit.com/stops/10399,10399,Westbound Notre Dame at Flint,0,10399
49.9139218567,,-97.0476114956,https://winnipegtransit.com/stops/40881,40881,Eastbound Concordia at Peguis,0,40881
49.9488971691,,-97.0936492799,https://winnipegtransit.com/stops/40880,40880,Westbound Whellams at Whellams Loop,0,40880
49.9181719234,,-97.0404185057,https://winnipegtransit.com/stops/40883,40883,Westbound Concordia at Whittington,0,40883
49.9138664463,,-97.0480594914,https://winnipegtransit.com/stops/40882,40882,Westbound Concordia at Peguis,0,40882
49.8887758173,,-97.1570557938,https://winnipegtransit.com/stops/10578,10578,Eastbound Portage at Langside,0,10578
49.9178672432,,-97.0404865829,https://winnipegtransit.com/stops/40884,40884,Eastbound Concordia at Whittington,0,40884
49.9150476602,,-97.0450307144,https://winnipegtransit.com/stops/40887,40887,Eastbound Concordia at Pinetop,0,40887
49.8974551911,,-97.0531500781,https://winnipegtransit.com/stops/40889,40889,Northbound Peguis at Regent,0,40889
49.9150726903,,-97.0454476106,https://winnipegtransit.com/stops/40888,40888,Westbound Concordia at Pinetop,0,40888
49.8877984462,,-97.1606431977,https://winnipegtransit.com/stops/10576,10576,Eastbound Portage at Maryland,0,10576
49.8883846611,,-97.1584768584,https://winnipegtransit.com/stops/10577,10577,Eastbound Portage at Sherbrook,0,10577
49.8843283238,,-97.1761163181,https://winnipegtransit.com/stops/10570,10570,Eastbound Portage at Sherburn,0,10570
49.8846887649,,-97.1733045422,https://winnipegtransit.com/stops/10571,10571,Eastbound Portage at Lipton,0,10571
49.8850042129,,-97.1710652038,https://winnipegtransit.com/stops/10572,10572,Eastbound Portage at Lenore,0,10572
49.8853852169,,-97.1695611975,https://winnipegtransit.com/stops/10573,10573,Eastbound Portage at Arlington,0,10573
49.9082041397,,-97.1300747187,https://winnipegtransit.com/stops/30628,30628,Westbound Euclid at Granville,0,30628
49.95215283,,-97.1837180374,https://winnipegtransit.com/stops/30629,30629,Northbound Mandalay at Margate,0,30629
49.954938653,,-97.1755410324,https://winnipegtransit.com/stops/30622,30622,Eastbound Adsum at Manila,0,30622
49.9549066525,,-97.1786512177,https://winnipegtransit.com/stops/30623,30623,Eastbound Adsum at Desharnais,0,30623
49.955036675,,-97.1783395959,https://winnipegtransit.com/stops/30620,30620,Westbound Adsum at Desharnais,0,30620
49.9550579392,,-97.1762614892,https://winnipegtransit.com/stops/30621,30621,Westbound Adsum at Manila,0,30621
49.9545675043,,-97.1839757225,https://winnipegtransit.com/stops/30626,30626,Southbound Mandalay at Adsum,0,30626
49.9056078982,,-97.125829758,https://winnipegtransit.com/stops/30627,30627,Westbound Sutherland at Disraeli,0,30627
49.9548919272,,-97.1805757125,https://winnipegtransit.com/stops/30624,30624,Eastbound Adsum at Ashmore,0,30624
49.9546096119,,-97.1837928989,https://winnipegtransit.com/stops/30625,30625,Northbound Mandalay at Adsum,0,30625
49.9009786539,,-97.0122461434,https://winnipegtransit.com/stops/40089,40089,Southbound Madeline at Kildare,0,40089
49.9010472179,,-97.0120483572,https://winnipegtransit.com/stops/40088,40088,Northbound Madeline at Kildare,0,40088
49.8933204977,,-97.0115304624,https://winnipegtransit.com/stops/40081,40081,Eastbound Pandora at Madeline,0,40081
49.8949982731,,-97.0076183172,https://winnipegtransit.com/stops/40080,40080,Eastbound Regent at Winona,0,40080
49.9052828441,,-97.011985645,https://winnipegtransit.com/stops/40083,40083,Northbound Madeline at McMeans,0,40083
49.9055034993,,-97.0117398043,https://winnipegtransit.com/stops/40082,40082,Westbound McMeans at Madeline,0,40082
49.9038171958,,-97.0120180469,https://winnipegtransit.com/stops/40085,40085,Northbound Madeline at Newman,0,40085
49.9041711045,,-97.0121984778,https://winnipegtransit.com/stops/40084,40084,Southbound Madeline at Newman,0,40084
49.90227017,,-97.0120259376,https://winnipegtransit.com/stops/40087,40087,Northbound Madeline at Ralph,0,40087
49.9024443031,,-97.0122137528,https://winnipegtransit.com/stops/40086,40086,Southbound Madeline at Ralph,0,40086
49.9036276901,,-97.0688340303,https://winnipegtransit.com/stops/40225,40225,Southbound Panet at Reenders,0,40225
49.9402762933,,-97.0863379098,https://winnipegtransit.com/stops/40556,40556,Eastbound Edison at Roch West,0,40556
49.9395115517,,-97.0836086307,https://winnipegtransit.com/stops/40555,40555,Westbound Edison at Roch,0,40555
49.9009074299,,-97.070766983,https://winnipegtransit.com/stops/40226,40226,Southbound Panet at Talbot,0,40226
49.9388657048,,-97.0820872399,https://winnipegtransit.com/stops/40553,40553,Eastbound Edison at Roch East,0,40553
49.8950395112,,-97.0252450998,https://winnipegtransit.com/stops/40220,40220,Northbound Plessis at Regent,0,40220
49.9394180761,,-97.0785113043,https://winnipegtransit.com/stops/40551,40551,Southbound Rothesay at Melmar,0,40551
49.9049432098,,-97.0678901441,https://winnipegtransit.com/stops/40222,40222,Southbound Panet at Keenleyside,0,40222
49.8992294535,,-97.07317343,https://winnipegtransit.com/stops/40229,40229,Westbound Nairn at Panet West,0,40229
49.9159709491,,-97.0928307338,https://winnipegtransit.com/stops/40559,40559,Eastbound Munroe at Raleigh West,0,40559
49.9161435784,,-97.0929353667,https://winnipegtransit.com/stops/40558,40558,Westbound Munroe at Raleigh West,0,40558
49.8586462202,,-97.062557971,https://winnipegtransit.com/stops/50088,50088,Eastbound Paterson at Penticton,0,50088
49.8588297168,,-97.0600878411,https://winnipegtransit.com/stops/50089,50089,Westbound Paterson at Peterboro,0,50089
49.8610966854,,-97.0703217555,https://winnipegtransit.com/stops/50080,50080,Westbound Cottonwood at Brebeuf,0,50080
49.8609731554,,-97.06830905,https://winnipegtransit.com/stops/50081,50081,Eastbound Cottonwood at Monaco,0,50081
49.8611122734,,-97.0674825331,https://winnipegtransit.com/stops/50082,50082,Westbound Cottonwood at Westmount,0,50082
49.861134222,,-97.0661040998,https://winnipegtransit.com/stops/50083,50083,Eastbound Cottonwood at Maywood,0,50083
49.8607770621,,-97.0651860819,https://winnipegtransit.com/stops/50084,50084,Northbound Westmount at Lachine,0,50084
49.8591488669,,-97.0651815539,https://winnipegtransit.com/stops/50085,50085,Northbound Westmount at Maywood,0,50085
49.8590172845,,-97.0653816079,https://winnipegtransit.com/stops/50086,50086,Southbound Westmount at Maywood,0,50086
49.8587694506,,-97.0634713688,https://winnipegtransit.com/stops/50087,50087,Westbound Paterson at Lomond,0,50087
49.9008447282,,-97.1288691886,https://winnipegtransit.com/stops/11119,11119,Northbound Waterfront at George,0,11119
49.898679393,,-97.1329217071,https://winnipegtransit.com/stops/11118,11118,Northbound Waterfront at James,0,11118
49.8851416169,,-97.1695147259,https://winnipegtransit.com/stops/11111,11111,Southbound Arlington at Portage South,0,11111
49.9061971432,,-97.1625896699,https://winnipegtransit.com/stops/11110,11110,Northbound Tecumseh at William,0,11110
49.8860730182,,-97.1692567451,https://winnipegtransit.com/stops/11113,11113,Northbound Arlington at Portage North,0,11113
49.8817873832,,-97.1695719908,https://winnipegtransit.com/stops/11112,11112,Northbound Arlington at Westminster,0,11112
49.8814131179,,-97.1697949519,https://winnipegtransit.com/stops/11115,11115,Southbound Arlington at Westminster,0,11115
49.888094364,,-97.1690967327,https://winnipegtransit.com/stops/11114,11114,Northbound Arlington at St. Paul,0,11114
49.8955420828,,-97.1330428027,https://winnipegtransit.com/stops/11117,11117,Northbound Waterfront at Lombard,0,11117
49.8795443723,,-97.1699352157,https://winnipegtransit.com/stops/11116,11116,Southbound Arlington at Wolseley,0,11116
49.9186563971,,-97.1683432967,https://winnipegtransit.com/stops/30335,30335,Westbound Jarvis at McPhillips East,0,30335
49.9183322899,,-97.1677565438,https://winnipegtransit.com/stops/30336,30336,Eastbound Jarvis at McPhillips East,0,30336
49.9189222324,,-97.1697960005,https://winnipegtransit.com/stops/30337,30337,Northbound McPhillips at Jarvis (McPhillips Station),0,30337
49.9217872155,,-97.1638360453,https://winnipegtransit.com/stops/30330,30330,Westbound Selkirk at Battery,0,30330
49.9217309119,,-97.1642561455,https://winnipegtransit.com/stops/30331,30331,Eastbound Selkirk at Battery,0,30331
49.9178708123,,-97.1658794322,https://winnipegtransit.com/stops/30332,30332,Westbound Jarvis at Sinclair,0,30332
49.9176980257,,-97.1657606108,https://winnipegtransit.com/stops/30333,30333,Eastbound Jarvis at Sinclair,0,30333
49.9201948246,,-97.1700682369,https://winnipegtransit.com/stops/30338,30338,Southbound McPhillips at Jarvis (McPhillips St Stn),0,30338
49.938662123,,-97.1351534765,https://winnipegtransit.com/stops/30224,30224,Eastbound Jefferson at McKenzie,0,30224
49.8967886908,,-97.0595267032,https://winnipegtransit.com/stops/40186,40186_merged_67006,Westbound Regent at Kildonan Place (Park & Ride),0,40186
49.9394975986,,-97.1373232953,https://winnipegtransit.com/stops/30225,30225,Westbound Jefferson at Parr,0,30225
49.8400363989,,-97.0820647625,https://winnipegtransit.com/stops/50885,50885,Southbound Shorehill at Abinojii Mikanah,0,50885
49.8385082304,,-97.0810403924,https://winnipegtransit.com/stops/50886,50886,Southbound Shorehill at Aubin,0,50886
49.836502674,,-97.0783521714,https://winnipegtransit.com/stops/50887,50887,Southbound Shorehill at Beaudry,0,50887
49.8343756216,,-97.0764755999,https://winnipegtransit.com/stops/50888,50888,Southbound Shorehill at Wildfire,0,50888
49.9509193963,,-97.1693639616,https://winnipegtransit.com/stops/30590,30590,Westbound Jefferson at Sheppard,0,30590
49.8965683969,,-97.0598001145,https://winnipegtransit.com/stops/47020,47020,Eastbound Regent at Kildonan Place Hub,0,47020
49.8818064219,,-97.0873006311,https://winnipegtransit.com/stops/50031,50031,Eastbound Marion at Panet West,0,50031
49.8819665942,,-97.0877397626,https://winnipegtransit.com/stops/50030,50030,Westbound Marion at Panet West,0,50030
49.8414271383,,-97.0943748538,https://winnipegtransit.com/stops/50521,50521,Northbound St Anne's at Beliveau,0,50521
49.8406510814,,-97.0942245528,https://winnipegtransit.com/stops/50520,50520,Southbound St Anne's at Beliveau,0,50520
49.84561049,,-97.097145404,https://winnipegtransit.com/stops/50527,50527,Southbound St Anne's at Sadler,0,50527
49.8454514991,,-97.0967760726,https://winnipegtransit.com/stops/50526,50526,Northbound St Anne's at Sadler,0,50526
49.8443652352,,-97.0963597093,https://winnipegtransit.com/stops/50525,50525,Southbound St Anne's at Hindley,0,50525
49.8710343721,,-97.09081593,https://winnipegtransit.com/stops/50036,50036,Westbound Elizabeth at Arundel,0,50036
49.8017725427,,-97.1568733052,https://winnipegtransit.com/stops/60095,60095_merged_67072,Northbound Pembina at Chancellor Matheson,0,60095
49.8668996995,,-97.2208593839,https://winnipegtransit.com/stops/60465,60465,Westbound Corydon at Park,0,60465
49.8665193646,,-97.218939025,https://winnipegtransit.com/stops/60464,60464,Eastbound Corydon at Lamont,0,60464
49.8666274368,,-97.220702394,https://winnipegtransit.com/stops/60466,60466,Eastbound Corydon at Park,0,60466
49.8663296206,,-97.2136300871,https://winnipegtransit.com/stops/60461,60461,Eastbound Corydon at Southport,0,60461
49.8666462204,,-97.2143281291,https://winnipegtransit.com/stops/60460,60460,Westbound Corydon at Southport,0,60460
49.8667727937,,-97.2178720774,https://winnipegtransit.com/stops/60463,60463,Westbound Corydon at Handsart,0,60463
49.8664412269,,-97.2167849124,https://winnipegtransit.com/stops/60462,60462,Eastbound Corydon at Handsart,0,60462
49.8670196427,,-97.2245706031,https://winnipegtransit.com/stops/60469,60469,Westbound Corydon at Boreham,0,60469
49.8667587771,,-97.2233972969,https://winnipegtransit.com/stops/60468,60468,Eastbound Corydon at Kelvin,0,60468
49.8935753842,,-97.1343579361,https://winnipegtransit.com/stops/10760,10760,Westbound Pioneer at Westbrook,0,10760
49.8953304384,,-97.1372143864,https://winnipegtransit.com/stops/10762,10762,Westbound Portage at Main,0,10762
49.8960981028,,-97.1430053406,https://winnipegtransit.com/stops/10765,10765,Northbound King at Notre Dame,0,10765
49.894819022,,-97.1356188593,https://winnipegtransit.com/stops/10764,10764,Westbound Portage at Westbrook,0,10764
49.897648486,,-97.1471372803,https://winnipegtransit.com/stops/10767,10767,Westbound Notre Dame at Dagmar,0,10767
49.8971275467,,-97.1455001641,https://winnipegtransit.com/stops/10766,10766,Westbound Notre Dame at Hargrave,0,10766
49.8993993977,,-97.1525708249,https://winnipegtransit.com/stops/10769,10769,Westbound Notre Dame at Isabel,0,10769
49.8982823945,,-97.1490903895,https://winnipegtransit.com/stops/10768,10768,Westbound Notre Dame at Gertie,0,10768
49.8472915583,,-97.0769505833,https://winnipegtransit.com/stops/50372,50372,Southbound Lakewood at Tamarac,0,50372
49.9386929083,,-97.1606987217,https://winnipegtransit.com/stops/30439,30439,Southbound McPhillips at Inkster,0,30439
49.9403349404,,-97.159312134,https://winnipegtransit.com/stops/30438,30438,Southbound McPhillips at Lansdowne,0,30438
49.9420025933,,-97.1578408457,https://winnipegtransit.com/stops/30437,30437,Southbound McPhillips at Mapleglen,0,30437
49.8611042586,,-97.1394494842,https://winnipegtransit.com/stops/10040,10040,Northbound Daly at Kylemore,0,10040
49.9065534329,,-97.1281190375,https://winnipegtransit.com/stops/30434,30434,Eastbound Euclid at Argyle,0,30434
49.9404784612,,-97.1587212911,https://winnipegtransit.com/stops/30433,30433,Northbound McPhillips at Lansdowne,0,30433
49.9363192408,,-97.1466577413,https://winnipegtransit.com/stops/30432,30432,Southbound Sinclair at Carruthers,0,30432
49.9365557131,,-97.1462584506,https://winnipegtransit.com/stops/30431,30431,Northbound Sinclair at Dahlia,0,30431
49.9381103508,,-97.1450420313,https://winnipegtransit.com/stops/30430,30430,Northbound Sinclair at Primrose South,0,30430
49.8598790477,,-97.1387730082,https://winnipegtransit.com/stops/10041,10041,Eastbound Rathgar at Daly,0,10041
49.8750830026,,-97.2561900142,https://winnipegtransit.com/stops/20270,20270,Eastbound Portage at Olive,0,20270
49.8752150821,,-97.2548073233,https://winnipegtransit.com/stops/20272,20272,Eastbound Portage at Whytewold,0,20272
49.8754121391,,-97.2529629673,https://winnipegtransit.com/stops/20273,20273,Eastbound Portage at Vernon,0,20273
49.8755761015,,-97.2507161513,https://winnipegtransit.com/stops/20274,20274,Eastbound Portage at Strathmillan,0,20274
49.8756915513,,-97.2488329602,https://winnipegtransit.com/stops/20275,20275,Eastbound Portage at Mount Royal West,0,20275
49.8759130226,,-97.2456375597,https://winnipegtransit.com/stops/20276,20276,Eastbound Portage at Mount Royal,0,20276
49.8763775808,,-97.2412780371,https://winnipegtransit.com/stops/20277,20277,Eastbound Portage at Conway,0,20277
49.8767118026,,-97.2384125058,https://winnipegtransit.com/stops/20278,20278,Eastbound Portage at Sharp,0,20278
49.8524445082,,-97.0784989845,https://winnipegtransit.com/stops/50378,50378,Southbound Lakewood at Meadowbrook,0,50378
49.8769839108,,-97.1441423924,https://winnipegtransit.com/stops/10185,10185,Southbound Osborne at Wardlaw,0,10185
49.8764493351,,-97.1483942687,https://winnipegtransit.com/stops/10184,10184,Eastbound Stradbrook at Nassau,0,10184
49.8780298845,,-97.143740382,https://winnipegtransit.com/stops/10187,10187,Eastbound Stradbrook at Osborne,0,10187
49.8776657066,,-97.1445895102,https://winnipegtransit.com/stops/10186,10186,Northbound Osborne at Stradbrook,0,10186
49.8730980907,,-97.1520158767,https://winnipegtransit.com/stops/10181,10181,Eastbound Wellington at Hugo,0,10181
49.8723402996,,-97.1541324763,https://winnipegtransit.com/stops/10180,10180,Eastbound Wellington at Cockburn,0,10180
49.8743945726,,-97.1509642593,https://winnipegtransit.com/stops/10182,10182,Eastbound Wellington at Wardlaw,0,10182
49.8790855804,,-97.1405818642,https://winnipegtransit.com/stops/10188,10188,Eastbound Stradbrook at Scott,0,10188
49.950035458,,-97.0507238633,https://winnipegtransit.com/stops/40624,40624,Eastbound Headmaster at Leatherwood,0,40624
49.8996459547,,-97.076582582,https://winnipegtransit.com/stops/40768,40768,Eastbound Nairn at Stapleton,0,40768
49.9043706505,,-97.0477046843,https://winnipegtransit.com/stops/40769,40769,Southbound Peguis at Ravelston,0,40769
49.89110756,,-97.0315179753,https://winnipegtransit.com/stops/40760,40760,Southbound Atwood at Ranchgrove,0,40760
49.8911964524,,-97.0288132142,https://winnipegtransit.com/stops/40761,40761,Eastbound Kernaghan at Robson,0,40761
49.8933757742,,-97.0284320066,https://winnipegtransit.com/stops/40762,40762,Northbound Robson at Pandora West,0,40762
49.8912894217,,-97.028990431,https://winnipegtransit.com/stops/40763,40763,Westbound Kernaghan at Robson,0,40763
49.8913112282,,-97.0313286833,https://winnipegtransit.com/stops/40764,40764,Northbound Atwood at Kernaghan,0,40764
49.8933713427,,-97.0313423138,https://winnipegtransit.com/stops/40765,40765,Northbound Atwood at Pandora,0,40765
49.8924345487,,-97.0286235281,https://winnipegtransit.com/stops/40766,40766,Southbound Robson at Peake,0,40766
49.9217482215,,-97.041792105,https://winnipegtransit.com/stops/40767,40767,Northbound McLellan at Williamson,0,40767
49.9520604555,,-97.1455376882,https://winnipegtransit.com/stops/30779,30779_merged_67133,Northbound Garden City Hub at Garden City Centre,0,30779
49.9219418826,,-97.1543284744,https://winnipegtransit.com/stops/30293,30293,Northbound Arlington at Burrows,0,30293
49.9232212731,,-97.1533322033,https://winnipegtransit.com/stops/30292,30292,Northbound Arlington at Aberdeen,0,30292
49.9247852068,,-97.1521299377,https://winnipegtransit.com/stops/30290,30290,Northbound Arlington at Boyd,0,30290
49.9170813784,,-97.1580803352,https://winnipegtransit.com/stops/30297,30297,Northbound Arlington at Dufferin,0,30297
49.919345563,,-97.1562247676,https://winnipegtransit.com/stops/30296,30296,Westbound Selkirk at Arlington,0,30296
49.9196139181,,-97.1561309417,https://winnipegtransit.com/stops/30295,30295,Northbound Arlington at Selkirk,0,30295
49.920653493,,-97.1553250352,https://winnipegtransit.com/stops/30294,30294,Northbound Arlington at Manitoba,0,30294
49.9173456903,,-97.2122469216,https://winnipegtransit.com/stops/20435,20435_merged_67151,Westbound RRC Polytech at RRC Polytech,0,20435
49.8460303013,,-97.1173128005,https://winnipegtransit.com/stops/50470,50470,Southbound Dunkirk at West Fernwood,0,50470
49.8404777721,,-97.1177093078,https://winnipegtransit.com/stops/50473,50473,Southbound Dunkirk at St. Vital,0,50473
49.8387365893,,-97.1162887463,https://winnipegtransit.com/stops/50475,50475,Southbound Dunkirk at Moore,0,50475
49.8405824799,,-97.1175105189,https://winnipegtransit.com/stops/50474,50474,Northbound Dunkirk at St. Vital,0,50474
49.8381476874,,-97.1154771496,https://winnipegtransit.com/stops/50477,50477,Northbound Dunkirk at Hastings,0,50477
49.8388779313,,-97.1161302625,https://winnipegtransit.com/stops/50476,50476,Northbound Dunkirk at Moore,0,50476
49.8365759885,,-97.1145229984,https://winnipegtransit.com/stops/50479,50479,Southbound Dunkirk at Parkville,0,50479
49.8373972638,,-97.115242076,https://winnipegtransit.com/stops/50478,50478,Southbound Dunkirk at Hastings,0,50478
49.901049953,,-97.1962077544,https://winnipegtransit.com/stops/10388,10388,Eastbound Wellington at Empress,0,10388
49.8491454543,,-97.1125175932,https://winnipegtransit.com/stops/50553,50553_merged_67071,Southbound St Mary's at Glenview,0,50553
49.857279648,,-97.2305486302,https://winnipegtransit.com/stops/61039,61039,Southbound Shaftesbury at Grant,0,61039
49.8468655654,,-97.2312766887,https://winnipegtransit.com/stops/61034,61034,Westbound Shaftesbury at Shaftesbury Park,0,61034
49.8505223721,,-97.2263020162,https://winnipegtransit.com/stops/61031,61031,Eastbound West Taylor at Holland,0,61031
49.851073859,,-97.2300101397,https://winnipegtransit.com/stops/61030,61030,Eastbound West Taylor at Shaftesbury,0,61030
49.8500609694,,-97.2185146511,https://winnipegtransit.com/stops/61033,61033,Eastbound Taylor at Coleraine,0,61033
49.8500789001,,-97.2214353727,https://winnipegtransit.com/stops/61032,61032,Eastbound Taylor at Park South,0,61032
49.8745228,,-97.20192862,https://winnipegtransit.com/stops/60928,60928,Southbound St James at Academy,0,60928
49.8507715435,,-97.2074427573,https://winnipegtransit.com/stops/60929,60929,Southbound Kenaston at Taylor,0,60929
49.819361496,,-97.1157622706,https://winnipegtransit.com/stops/50699,50699,Northbound River at Darwin,0,50699
49.8199570264,,-97.1136676136,https://winnipegtransit.com/stops/50698,50698,Southbound River at St. Mary's,0,50698
49.8180459596,,-97.1222640307,https://winnipegtransit.com/stops/50695,50695,Southbound River at Minnetonka,0,50695
49.8178784484,,-97.1263577687,https://winnipegtransit.com/stops/50694,50694,Southbound River at McNulty East,0,50694
49.8193295495,,-97.1154576534,https://winnipegtransit.com/stops/50697,50697,Southbound River at Darwin,0,50697
49.8184445658,,-97.1180083708,https://winnipegtransit.com/stops/50696,50696,Southbound River at Nicollet,0,50696
49.8185776845,,-97.1345609885,https://winnipegtransit.com/stops/50691,50691,Southbound River at Harry Collins,0,50691
49.8212466236,,-97.1355149788,https://winnipegtransit.com/stops/50690,50690,Westbound Riel at St. Germain,0,50690
49.8237327371,,-97.1497403932,https://winnipegtransit.com/stops/60926,60926,Eastbound Plaza at Plaza East,0,60926
49.8172581316,,-97.1319425443,https://winnipegtransit.com/stops/50692,50692,Southbound River at Woodlawn,0,50692
49.8021201264,,-97.16572681,https://winnipegtransit.com/stops/61259,61259,Southbound Markham at Bison,0,61259
49.7804203301,,-97.1728948031,https://winnipegtransit.com/stops/61251,61251,Eastbound Kirkbridge at Tim Sale,0,61251
49.7761810617,,-97.1750127709,https://winnipegtransit.com/stops/61250,61250,Southbound Tim Sale at Point West Way,0,61250
49.8067824031,,-97.1360707922,https://winnipegtransit.com/stops/61253,61253,Eastbound Dafoe at Agriculture,0,61253
49.7805363192,,-97.1722653242,https://winnipegtransit.com/stops/61252,61252,Westbound Kirkbridge at Millstream,0,61252
49.8096276631,,-97.1423971182,https://winnipegtransit.com/stops/61255,61255,Westbound Bohemier at University Crescent,0,61255
49.8085850556,,-97.1307197192,https://winnipegtransit.com/stops/61254,61254,Eastbound Dafoe at U of M Station,0,61254
49.8397385504,,-97.2211055016,https://winnipegtransit.com/stops/61257,61257,Southbound Seasons of Tuxedo at Seasons of Tuxedo,0,61257
49.8454810269,,-97.2172502907,https://winnipegtransit.com/stops/61256,61256,Northbound Outlet Collection at Outlet Collection,0,61256
49.8886794094,,-97.158911161,https://winnipegtransit.com/stops/10432,10432,Northbound Sherbrook at Portage North,0,10432
49.9490980656,,-97.2251368217,https://winnipegtransit.com/stops/30867,30867,Southbound Inksbrook at Meridian,0,30867
49.8500762141,,-97.1529219265,https://winnipegtransit.com/stops/60259,60259,Southbound Pembina at Calrossie,0,60259
49.8482731898,,-97.1526707075,https://winnipegtransit.com/stops/60256,60256,Westbound Point at Pembina East,0,60256
49.8495299588,,-97.1525115013,https://winnipegtransit.com/stops/60257,60257,Northbound Pembina at Calrossie,0,60257
49.8480753085,,-97.1521079067,https://winnipegtransit.com/stops/60254,60254,Eastbound Point at Pembina East,0,60254
49.8479968375,,-97.1533906955,https://winnipegtransit.com/stops/60255,60255,Westbound Windermere at Pembina West,0,60255
49.847983633,,-97.1531268931,https://winnipegtransit.com/stops/60252,60252,Eastbound Windermere at Pembina West,0,60252
49.848021037,,-97.152652499,https://winnipegtransit.com/stops/60253,60253,Northbound Pembina at Point Road,0,60253
49.8452187203,,-97.1529123394,https://winnipegtransit.com/stops/60250,60250,Northbound Pembina at North Drive,0,60250
49.8478849692,,-97.1531445645,https://winnipegtransit.com/stops/60251,60251,Southbound Pembina at Windermere,0,60251
49.9523616328,,-97.1452473007,https://winnipegtransit.com/stops/30377,30377_merged_67058,Northbound Garden City Terminal at Garden City Centre (71 via Sinclair),0,30377
49.8344529955,,-97.1665758642,https://winnipegtransit.com/stops/60784,60784,Southbound Irene at Waller,0,60784
49.8323207695,,-97.1648486783,https://winnipegtransit.com/stops/60785,60785,Southbound Irene at Clarence,0,60785
49.8329122133,,-97.1613079503,https://winnipegtransit.com/stops/60786,60786,Eastbound Clarence at Clarence Station,0,60786
49.8338143626,,-97.1586453596,https://winnipegtransit.com/stops/60787,60787,Eastbound Clarence at Donnelly,0,60787
49.8696351509,,-97.2104185686,https://winnipegtransit.com/stops/60780,60780,Eastbound Tuxedo at Edgeland,0,60780
49.8571068145,,-97.1555200206,https://winnipegtransit.com/stops/60781,60781,Eastbound Taylor at Harrow,0,60781
49.7678451588,,-97.158716,https://winnipegtransit.com/stops/60782,60782,Eastbound Ducharme at Villeneuve,0,60782
49.7643959174,,-97.1539446214,https://winnipegtransit.com/stops/60783,60783,Westbound Des Trappistes at Pembina West,0,60783
49.8353859536,,-97.1539684734,https://winnipegtransit.com/stops/60788,60788,Eastbound Clarence at Hudson,0,60788
49.8363729411,,-97.1509964066,https://winnipegtransit.com/stops/60789,60789,Eastbound Clarence at Pembina,0,60789
49.7975356552,,-97.1433601677,https://winnipegtransit.com/stops/60078,60078,Westbound Silverstone at Laval,0,60078
49.7984567936,,-97.1402259858,https://winnipegtransit.com/stops/60079,60079,Eastbound Silverstone at Tunis,0,60079
49.7969611076,,-97.1518588227,https://winnipegtransit.com/stops/60072,60072,Westbound Dalhousie at Allegheny,0,60072
49.79700262,,-97.1510790548,https://winnipegtransit.com/stops/60073,60073,Eastbound Dalhousie at Allegheny,0,60073
49.7962038405,,-97.1534440019,https://winnipegtransit.com/stops/60070,60070,Eastbound Dalhousie at Ulster,0,60070
49.7963087109,,-97.1538152049,https://winnipegtransit.com/stops/60071,60071,Westbound Dalhousie at Ulster,0,60071
49.7967280461,,-97.1457256072,https://winnipegtransit.com/stops/60076,60076,Westbound Silverstone at McGill,0,60076
49.7974005878,,-97.1433514375,https://winnipegtransit.com/stops/60077,60077,Eastbound Silverstone at MacAlester,0,60077
49.7962139002,,-97.1467596533,https://winnipegtransit.com/stops/60074,60074,Northbound Dalhousie at Silverstone,0,60074
49.7965929787,,-97.1457168704,https://winnipegtransit.com/stops/60075,60075,Eastbound Silverstone at McGill,0,60075
49.857837672,,-97.1534051424,https://winnipegtransit.com/stops/10378,10378,Eastbound Taylor at Stafford,0,10378
49.8579515365,,-97.1537764711,https://winnipegtransit.com/stops/10379,10379,Westbound Taylor at Stafford,0,10379
49.9139097341,,-97.1989039455,https://winnipegtransit.com/stops/10376,10376,Northbound St James at Bangor,0,10376
49.9159043717,,-97.1987599756,https://winnipegtransit.com/stops/10377,10377,Northbound St James at Notre Dame,0,10377
49.9083663128,,-97.1993193665,https://winnipegtransit.com/stops/10374,10374,Northbound St James at Saskatchewan North,0,10374
49.9112862468,,-97.1990991844,https://winnipegtransit.com/stops/10375,10375,Northbound St James at Dublin,0,10375
49.901035437,,-97.1998986923,https://winnipegtransit.com/stops/10372,10372,Northbound St James at Wellington,0,10372
49.9059945349,,-97.1995051803,https://winnipegtransit.com/stops/10373,10373,Northbound St James at Saskatchewan,0,10373
49.8939115286,,-97.2004840379,https://winnipegtransit.com/stops/10370,10370,Northbound St James at Ellice,0,10370
49.8975322425,,-97.2002100914,https://winnipegtransit.com/stops/10371,10371,Northbound St James at Sargent,0,10371
49.8669598294,,-97.228886812,https://winnipegtransit.com/stops/60472,60472_merged_67041,Eastbound Corydon at Shaftesbury,0,60472
49.8779935505,,-97.2721341227,https://winnipegtransit.com/stops/20227,20227_merged_67078,Westbound Portage at Ronald,0,20227
49.8933491758,,-97.1697750676,https://winnipegtransit.com/stops/10518,10518,Westbound Ellice at Arlington,0,10518
49.8931706722,,-97.1692944878,https://winnipegtransit.com/stops/10519,10519,Eastbound Ellice at Arlington,0,10519
49.8934096271,,-97.1770271122,https://winnipegtransit.com/stops/10512,10512,Eastbound Ellice at Dominion,0,10512
49.893573632,,-97.1771601711,https://winnipegtransit.com/stops/10513,10513,Westbound Ellice at Dominion,0,10513
49.8935027413,,-97.1800868572,https://winnipegtransit.com/stops/10510,10510,Eastbound Ellice at Minto,0,10510
49.8936610551,,-97.1798581187,https://winnipegtransit.com/stops/10511,10511,Westbound Ellice at Minto,0,10511
49.8932514863,,-97.1721318888,https://winnipegtransit.com/stops/10516,10516,Eastbound Ellice at Banning,0,10516
49.8934093446,,-97.1718752948,https://winnipegtransit.com/stops/10517,10517,Westbound Ellice at Banning,0,10517
49.8933223574,,-97.1743431009,https://winnipegtransit.com/stops/10514,10514,Eastbound Ellice at Ingersoll,0,10514
49.8934802208,,-97.1740865137,https://winnipegtransit.com/stops/10515,10515,Westbound Ellice at Ingersoll,0,10515
49.9497105033,,-97.2181582308,https://winnipegtransit.com/stops/31069,31069,Eastbound Haggart at Cleveland,0,31069
49.9490128871,,-97.2248611563,https://winnipegtransit.com/stops/31068,31068,Northbound Inksbrook at Meridian,0,31068
49.8216554184,,-97.0829168832,https://winnipegtransit.com/stops/50776,50776,Westbound Southglen at Sauve,0,50776
49.8043376591,,-97.0931353867,https://winnipegtransit.com/stops/50801,50801,Eastbound Aldgate at Cummings,0,50801
49.8046410081,,-97.0929844823,https://winnipegtransit.com/stops/50802,50802,Westbound Aldgate at Wycombe,0,50802
49.9420895028,,-97.2174219642,https://winnipegtransit.com/stops/31064,31064,Westbound Burrows at Lucas,0,31064
49.8054572627,,-97.0961213096,https://winnipegtransit.com/stops/50804,50804,Northbound Highbury at Southfields,0,50804
49.8079452627,,-97.0958985959,https://winnipegtransit.com/stops/50805,50805,Northbound Highbury at John Forsyth,0,50805
49.8114619145,,-97.0942315379,https://winnipegtransit.com/stops/50806,50806,Northbound Dakota at Warde,0,50806
49.8033383506,,-97.1155922575,https://winnipegtransit.com/stops/50771,50771,Northbound St Mary's at Normand Park,0,50771
49.9140579855,,-97.0610623548,https://winnipegtransit.com/stops/40203,40203,Northbound Molson at Snowdon,0,40203
49.9183657276,,-97.0572535011,https://winnipegtransit.com/stops/40202,40202,Northbound Molson at Aluthra,0,40202
49.9203576287,,-97.0553483662,https://winnipegtransit.com/stops/40201,40201,Northbound Molson at Golden Eagle,0,40201
49.9022689666,,-97.0655737676,https://winnipegtransit.com/stops/40200,40200,Eastbound Reenders at Lagimodiere East,0,40200
49.9041930054,,-97.0682125883,https://winnipegtransit.com/stops/40207,40207,Northbound Panet at Reenders,0,40207
49.9051529069,,-97.0675196531,https://winnipegtransit.com/stops/40206,40206,Northbound Panet at Keenleyside,0,40206
49.9092769547,,-97.0667001759,https://winnipegtransit.com/stops/40205,40205,Southbound Molson at Brewer,0,40205
49.9111431392,,-97.0631850557,https://winnipegtransit.com/stops/40204,40204,Northbound Molson at Concordia,0,40204
49.8988431841,,-97.0710442813,https://winnipegtransit.com/stops/40209,40209,Westbound Regent at Panet East,0,40209
49.9010551412,,-97.0704547141,https://winnipegtransit.com/stops/40208,40208,Northbound Panet at Talbot,0,40208
49.8935092918,,-97.1845144039,https://winnipegtransit.com/stops/11137,11137,Southbound Erin at Ellice,0,11137
49.8971207467,,-97.1842256867,https://winnipegtransit.com/stops/11136,11136,Southbound Erin at Sargent,0,11136
49.900552623,,-97.183957588,https://winnipegtransit.com/stops/11135,11135,Southbound Erin at Wellington,0,11135
49.9043890316,,-97.1836742508,https://winnipegtransit.com/stops/11134,11134,Southbound Erin at Richard,0,11134
49.9066771475,,-97.1810256132,https://winnipegtransit.com/stops/11133,11133,Northbound Wall at Notre Dame,0,11133
49.9040896565,,-97.1812204293,https://winnipegtransit.com/stops/11132,11132,Northbound Wall at Richard,0,11132
49.900855345,,-97.1814673944,https://winnipegtransit.com/stops/11131,11131,Northbound Wall at Wellington,0,11131
49.8974324664,,-97.181735334,https://winnipegtransit.com/stops/11130,11130,Northbound Wall at Sargent,0,11130
49.8571396834,,-97.1468785122,https://winnipegtransit.com/stops/11139,11139,Eastbound Rathgar at Lilac,0,11139
49.8901857222,,-97.184806193,https://winnipegtransit.com/stops/11138,11138,Southbound Erin at St. Matthews,0,11138
49.9535572937,,-97.1328912309,https://winnipegtransit.com/stops/30352,30352,Southbound Sinclair at Templeton,0,30352
49.9542454151,,-97.1466108906,https://winnipegtransit.com/stops/30353,30353,Northbound McPhillips at Leila North,0,30353
49.9531089498,,-97.1329782774,https://winnipegtransit.com/stops/30350,30350,Northbound Sinclair at Templeton,0,30350
49.9545521548,,-97.1709967702,https://winnipegtransit.com/stops/30603,30603,Westbound Jefferson at Adsum,0,30603
49.9567986886,,-97.1714275047,https://winnipegtransit.com/stops/30604,30604,Eastbound Jefferson at Hiddleston,0,30604
49.9496414869,,-97.135496133,https://winnipegtransit.com/stops/30357,30357,Westbound Leila at Sinclair,0,30357
49.9472579599,,-97.1282560256,https://winnipegtransit.com/stops/30354,30354,Westbound Leila at Ambassador,0,30354
49.9483724703,,-97.1315444255,https://winnipegtransit.com/stops/30355,30355,Westbound Leila at Diplomat,0,30355
49.9590177311,,-97.1763907237,https://winnipegtransit.com/stops/30608,30608,Eastbound Jefferson at Gardenia,0,30608
49.9592376488,,-97.1766473285,https://winnipegtransit.com/stops/30609,30609,Westbound Jefferson at Gardenia,0,30609
49.9498516066,,-97.1356971213,https://winnipegtransit.com/stops/30358,30358,Southbound Sinclair at Leila,0,30358
49.9507867927,,-97.1390345997,https://winnipegtransit.com/stops/30359,30359,Westbound Leila at Jack Donner,0,30359
49.9275664197,,-97.1248248876,https://winnipegtransit.com/stops/31009,31009,Eastbound Inkster at Main,0,31009
49.955085339,,-97.1614962377,https://winnipegtransit.com/stops/31008,31008,Eastbound Adsum at Pipeline,0,31008
49.8521411168,,-97.0469443657,https://winnipegtransit.com/stops/50868,50868,Northbound Royal Mint at Blue Mountain South,0,50868
49.8536645881,,-97.0444760649,https://winnipegtransit.com/stops/50869,50869,Northbound Royal Mint at Blue Mountain,0,50869
49.8199306498,,-97.0814279357,https://winnipegtransit.com/stops/50866,50866,Southbound St Anne's at Southglen South,0,50866
49.9570196137,,-97.2033606979,https://winnipegtransit.com/stops/31004,31004,Eastbound Old Commonwealth at Wildbrook,0,31004
49.955040877,,-97.1654991856,https://winnipegtransit.com/stops/31007,31007,Eastbound Adsum at Blechner,0,31007
49.9547652002,,-97.1879834493,https://winnipegtransit.com/stops/31006,31006,Eastbound Adsum at Scarfe,0,31006
49.8172496858,,-97.0939207416,https://winnipegtransit.com/stops/50862,50862,Westbound Southglen at Amersham,0,50862
49.9584007523,,-97.1949995124,https://winnipegtransit.com/stops/31000,31000,Northbound Dr. Jose Rizal at Highwater,0,31000
49.8433942016,,-97.0838514012,https://winnipegtransit.com/stops/50860,50860,Eastbound Beaverhill at Willowlake,0,50860
49.9607828782,,-97.1983683526,https://winnipegtransit.com/stops/31002,31002,Westbound Jefferson at Luzon East,0,31002
49.8820292548,,-97.0997369249,https://winnipegtransit.com/stops/50621,50621,Westbound Marion at Archibald,0,50621
49.8917300362,,-96.968126243,https://winnipegtransit.com/stops/47008,47008,Northbound Ravenhurst at Merkel Manza,0,47008
49.9230551334,,-97.0784514497,https://winnipegtransit.com/stops/47004,47004,Northbound Gateway at Antrim,0,47004
49.9291067394,,-97.070755932,https://winnipegtransit.com/stops/47005,47005,Northbound Gateway at McLeod,0,47005
49.88581887,,-97.1583378348,https://winnipegtransit.com/stops/10199,10199_merged_67132,Westbound Broadway at Sherbrook,0,10199
49.9290316386,,-97.0711072877,https://winnipegtransit.com/stops/47001,47001,Southbound Gateway at McLeod,0,47001
49.923085798,,-97.0786731511,https://winnipegtransit.com/stops/47002,47002,Southbound Gateway at Antrim,0,47002
49.9145884772,,-97.0891798775,https://winnipegtransit.com/stops/47003,47003,Northbound Gateway at Munroe,0,47003
49.9643021224,,-97.160740721,https://winnipegtransit.com/stops/30976,30976,Westbound Templeton at Pipeline,0,30976
49.9640255772,,-97.1603189896,https://winnipegtransit.com/stops/30977,30977,Eastbound Templeton at Pipeline,0,30977
49.9608931596,,-97.1505804458,https://winnipegtransit.com/stops/30974,30974,Eastbound Templeton at Degrave,0,30974
49.9587163626,,-97.1438319169,https://winnipegtransit.com/stops/30975,30975,Eastbound Templeton at McPhillips,0,30975
49.9631951989,,-97.1573108503,https://winnipegtransit.com/stops/30972,30972,Westbound Templeton at Cartesian,0,30972
49.9627389698,,-97.1563382552,https://winnipegtransit.com/stops/30973,30973,Eastbound Templeton at Cartesian,0,30973
49.9588981602,,-97.1439504104,https://winnipegtransit.com/stops/30970,30970,Westbound Templeton at McPhillips,0,30970
49.9613307902,,-97.1515118322,https://winnipegtransit.com/stops/30971,30971,Westbound Templeton at Daylan Marshall,0,30971
49.9162597792,,-97.2112423036,https://winnipegtransit.com/stops/27002,27002,Southbound Sherwin at Notre Dame,0,27002
49.9640434197,,-97.1608760798,https://winnipegtransit.com/stops/30978,30978,Northbound Pipeline at Templeton,0,30978
49.9639296545,,-97.1610756348,https://winnipegtransit.com/stops/30979,30979,Southbound Pipeline at Templeton,0,30979
49.9507232952,,-97.1831863219,https://winnipegtransit.com/stops/30631,30631,Northbound Mandalay at Abraham,0,30631
49.8973377223,,-97.0595464524,https://winnipegtransit.com/stops/40786,40786_merged_67024,"Northbound Kildonan Place Terminal at Kildonan Place (47, 86, 87, 92)",0,40786
49.9242990032,,-97.1560497111,https://winnipegtransit.com/stops/30322,30322,Eastbound Aberdeen at Sinclair,0,30322
49.9198940822,,-97.1584746794,https://winnipegtransit.com/stops/30321,30321,Eastbound Selkirk at Sinclair,0,30321
49.9492135074,,-97.1826994774,https://winnipegtransit.com/stops/30632,30632,Southbound Mandalay at Mapleton,0,30632
49.9258836556,,-97.1606708101,https://winnipegtransit.com/stops/30327,30327,Westbound Aberdeen at Battery,0,30327
49.9209921764,,-97.1619157955,https://winnipegtransit.com/stops/30326,30326,Eastbound Selkirk at Sinclair West,0,30326
49.9209640282,,-97.1612760025,https://winnipegtransit.com/stops/30325,30325,Westbound Selkirk at Sinclair West,0,30325
49.9250792619,,-97.1581656209,https://winnipegtransit.com/stops/30324,30324,Westbound Aberdeen at Artillery,0,30324
49.8610625974,,-97.0774613502,https://winnipegtransit.com/stops/50074,50074_merged_67011,Westbound Cottonwood at Autumnwood,0,50074
49.8696902382,,-97.2064223567,https://winnipegtransit.com/stops/60443,60443,Westbound Tuxedo at Kenaston,0,60443
49.8694455095,,-97.2057216591,https://winnipegtransit.com/stops/60442,60442,Eastbound Tuxedo at Kenaston,0,60442
49.86928283,,-97.2056720201,https://winnipegtransit.com/stops/60441,60441,Southbound Kenaston at Tuxedo,0,60441
49.869403513,,-97.2053335419,https://winnipegtransit.com/stops/60440,60440,Northbound Kenaston at Tuxedo,0,60440
49.873425781,,-97.2048504051,https://winnipegtransit.com/stops/60447,60447,Southbound Kenaston at Fulham,0,60447
49.8720798951,,-97.2050673216,https://winnipegtransit.com/stops/60445,60445,Northbound Kenaston at Willow,0,60445
49.871591277,,-97.20546121,https://winnipegtransit.com/stops/60444,60444,Southbound Kenaston at Willow,0,60444
49.8747663364,,-97.2031304802,https://winnipegtransit.com/stops/60449,60449,Northbound Kenaston at Academy,0,60449
49.8680152237,,-97.2659216509,https://winnipegtransit.com/stops/60448,60448,Southbound William Clement at Roblin North,0,60448
49.9087754057,,-97.1703333246,https://winnipegtransit.com/stops/10749,10749,Eastbound William at McPhillips,0,10749
49.9084431303,,-97.1686605864,https://winnipegtransit.com/stops/10748,10748,Westbound William at Lark,0,10748
49.9082539085,,-97.168639897,https://winnipegtransit.com/stops/10747,10747,Eastbound William at Lark,0,10747
49.9075540412,,-97.1659086716,https://winnipegtransit.com/stops/10746,10746,Westbound William at Arlington,0,10746
49.9071093083,,-97.1650898717,https://winnipegtransit.com/stops/10745,10745,Eastbound William at Arlington,0,10745
49.9062476971,,-97.1618078048,https://winnipegtransit.com/stops/10744,10744,Westbound William at Tecumseh,0,10744
49.906333533,,-97.1626819805,https://winnipegtransit.com/stops/10743,10743,Eastbound William at Tecumseh,0,10743
49.9050845554,,-97.1588019537,https://winnipegtransit.com/stops/10741,10741,Eastbound William at Health Sciences Centre,0,10741
49.905576271,,-97.1597442208,https://winnipegtransit.com/stops/10740,10740,Westbound William at Health Sciences Centre,0,10740
49.9253934057,,-97.1694673182,https://winnipegtransit.com/stops/30491,30491,Southbound McPhillips at Manitoba,0,30491
49.8969620488,,-97.0596729239,https://winnipegtransit.com/stops/40784,40784_merged_67030,"Northbound Kildonan Place Terminal at Kildonan Place (43, 89, 90 N Transcona)",0,40784
49.8214019305,,-97.0997220632,https://winnipegtransit.com/stops/50504,50504_merged_67037,Southbound Dakota at Leston,0,50504
49.8817496812,,-97.2761065413,https://winnipegtransit.com/stops/20298,20298,"Westbound Pearl McGonigal at Grace Hospital (11, 21)",0,20298
49.8813520072,,-97.2790021983,https://winnipegtransit.com/stops/20296,20296,Southbound Sturgeon at Portage North,0,20296
49.8846180165,,-97.2784544982,https://winnipegtransit.com/stops/20294,20294,Northbound Sturgeon at Caron,0,20294
49.8842535569,,-97.2787458849,https://winnipegtransit.com/stops/20295,20295,Southbound Sturgeon at Caron,0,20295
49.8803224203,,-97.273888422,https://winnipegtransit.com/stops/20292,20292,Northbound Booth at Lodge (Assiniboine Clinic),0,20292
49.8791065336,,-97.2069086375,https://winnipegtransit.com/stops/20290,20290,Eastbound Portage at Garden,0,20290
49.879668237,,-97.2036862601,https://winnipegtransit.com/stops/20291,20291,Eastbound Portage at Kintyre,0,20291
49.9087926886,,-97.1336593993,https://winnipegtransit.com/stops/30094,30094_merged_67085,Southbound Main at Dufferin,0,30094
49.9525026198,,-97.1023176234,https://winnipegtransit.com/stops/30015,30015,Southbound Main at Chief Peguis,0,30015
49.9540736007,,-97.0993839241,https://winnipegtransit.com/stops/30014,30014,Northbound Main at Murray,0,30014
49.9484431827,,-97.107648859,https://winnipegtransit.com/stops/30017,30017,Northbound Main at Seaforth,0,30017
49.9523546829,,-97.1020725015,https://winnipegtransit.com/stops/30016,30016,Northbound Main at Foley,0,30016
49.9564713847,,-97.0953159939,https://winnipegtransit.com/stops/30011,30011,Northbound Main at Park Manor,0,30011
49.9571866682,,-97.0945069948,https://winnipegtransit.com/stops/30010,30010,Southbound Main at Woodbine,0,30010
49.9544073432,,-97.0994404912,https://winnipegtransit.com/stops/30013,30013,Southbound Main at Murray,0,30013
49.9562195808,,-97.0964134131,https://winnipegtransit.com/stops/30012,30012,Southbound Main at Park Manor,0,30012
49.9464419874,,-97.1101387789,https://winnipegtransit.com/stops/30019,30019,Northbound Main at Margaret,0,30019
49.9491029202,,-97.1072884403,https://winnipegtransit.com/stops/30018,30018,Southbound Main at Seaforth,0,30018
49.8624138043,,-97.05979121,https://winnipegtransit.com/stops/50097,50097,Northbound Lagimodiere at Cottonwood,0,50097
49.9390539579,,-97.0728394302,https://winnipegtransit.com/stops/40563,40563,Westbound Springfield at Karen,0,40563
49.8595250463,,-97.0543551393,https://winnipegtransit.com/stops/50095,50095,Westbound Paterson at Lagimodiere,0,50095
49.8973440455,,-97.1881441479,https://winnipegtransit.com/stops/10457,10457,Eastbound Sargent at Valour,0,10457
49.8805986148,,-97.0387803484,https://winnipegtransit.com/stops/50094,50094,Northbound Paquin at De Baets South,0,50094
49.8460881068,,-97.0641173199,https://winnipegtransit.com/stops/50329,50329,Northbound Beaverhill at Shamrock,0,50329
49.8480153517,,-97.0647915123,https://winnipegtransit.com/stops/50328,50328,Northbound Beaverhill at Seabrook,0,50328
49.8210771653,,-97.1356049119,https://winnipegtransit.com/stops/50459,50459,Eastbound Riel at St. Germain,0,50459
49.8187021943,,-97.1344727853,https://winnipegtransit.com/stops/50458,50458,Northbound River at Harry Collins,0,50458
49.8496626113,,-97.0643222869,https://winnipegtransit.com/stops/50325,50325,Northbound Beaverhill at Edgewater,0,50325
49.8170853398,,-97.1307119218,https://winnipegtransit.com/stops/50456,50456,Northbound River at McNulty,0,50456
49.8477473046,,-97.0648995941,https://winnipegtransit.com/stops/50327,50327,Southbound Beaverhill at Shoreview,0,50327
49.8116021076,,-97.0956438782,https://winnipegtransit.com/stops/50454,50454,Westbound Warde at Dakota West,0,50454
49.8536850986,,-97.0654971717,https://winnipegtransit.com/stops/50321,50321,Eastbound Vermillion at Beaverhill,0,50321
49.8206069171,,-97.1237637311,https://winnipegtransit.com/stops/50452,50452,Southbound Minnetonka at Woodlawn,0,50452
49.8522641123,,-97.063898365,https://winnipegtransit.com/stops/50323,50323,Northbound Beaverhill at Grover Hills,0,50323
49.9367346787,,-97.0664514976,https://winnipegtransit.com/stops/40567,40567,Eastbound Springfield at Edelweiss,0,40567
49.939015735,,-97.0732451327,https://winnipegtransit.com/stops/40564,40564,Eastbound Springfield at Karen,0,40564
49.8587878281,,-97.0591990192,https://winnipegtransit.com/stops/50090,50090,Eastbound Paterson at Peterboro,0,50090
49.7860737778,,-97.1697645661,https://winnipegtransit.com/stops/61019,61019,Northbound Bairdmore at Hawstead,0,61019
49.7836912777,,-97.1704100479,https://winnipegtransit.com/stops/61018,61018,Northbound Bairdmore at Bernfield North,0,61018
49.7883944753,,-97.1703301011,https://winnipegtransit.com/stops/61013,61013,Southbound Bairdmore at Sandusky,0,61013
49.7907758337,,-97.168475777,https://winnipegtransit.com/stops/61012,61012,Southbound Bairdmore at Calderwood West,0,61012
49.7917564482,,-97.165645955,https://winnipegtransit.com/stops/61011,61011,Southbound Bairdmore at Calderwood East,0,61011
49.7941777076,,-97.1600796916,https://winnipegtransit.com/stops/61010,61010,Southbound Bairdmore at Barnes,0,61010
49.7802915681,,-97.1693017758,https://winnipegtransit.com/stops/61017,61017,Northbound Bairdmore at Kirkbridge,0,61017
49.780367221,,-97.1695350785,https://winnipegtransit.com/stops/61016,61016,Southbound Bairdmore at Kirkbridge,0,61016
49.7839638258,,-97.1705803822,https://winnipegtransit.com/stops/61015,61015,Southbound Bairdmore at Bernfield North,0,61015
49.7858510099,,-97.1698979987,https://winnipegtransit.com/stops/61014,61014,Southbound Bairdmore at Hawstead,0,61014
49.8088673346,,-97.1303752534,https://winnipegtransit.com/stops/60674,60674_merged_67040,"Westbound Dafoe at U of M Station (36, 47, 60)",0,60674
49.84916846,,-97.1288901888,https://winnipegtransit.com/stops/60274,60274,Southbound North at Wildwood D,0,60274
49.8481326291,,-97.1271356826,https://winnipegtransit.com/stops/60275,60275,Southbound North at Wildwood C,0,60275
49.8470601388,,-97.1253409369,https://winnipegtransit.com/stops/60276,60276,Southbound North at Wildwood B,0,60276
49.8461926016,,-97.1239834643,https://winnipegtransit.com/stops/60277,60277,Southbound North at Wildwood A,0,60277
49.9460073334,,-97.1727282925,https://winnipegtransit.com/stops/30595,30595,Eastbound Mapleglen at Marlow,0,30595
49.84736859,,-97.1355255303,https://winnipegtransit.com/stops/60271,60271,Eastbound Oakenwald at Wildwood St,0,60271
49.8482020244,,-97.1331007839,https://winnipegtransit.com/stops/60272,60272,Eastbound Oakenwald at Wildwood F,0,60272
49.8486656956,,-97.1317335473,https://winnipegtransit.com/stops/60273,60273,Eastbound Oakenwald at Wildwood E,0,60273
49.8487996403,,-97.1316727383,https://winnipegtransit.com/stops/60278,60278,Westbound Oakenwald at Wildwood E,0,60278
49.8448348523,,-97.128459393,https://winnipegtransit.com/stops/60279,60279,Westbound South at Wildwood I,0,60279
49.8429892167,,-97.1694103802,https://winnipegtransit.com/stops/61277,61277,Northbound Seel Station at Seel Station,0,61277
49.7997363255,,-97.1908592012,https://winnipegtransit.com/stops/61276,61276,Westbound North Town at Hill Grove,0,61276
49.8023311911,,-97.1848142705,https://winnipegtransit.com/stops/61275,61275,Westbound North Town at North Town,0,61275
49.8021511764,,-97.1848071054,https://winnipegtransit.com/stops/61274,61274,Eastbound North Town at Bridgeland,0,61274
49.7996973256,,-97.1906660979,https://winnipegtransit.com/stops/61273,61273,Eastbound North Town at Hill Grove,0,61273
49.8452524986,,-97.1618134734,https://winnipegtransit.com/stops/61272,61272,Southbound Beaumont at Windermere,0,61272
49.847101457,,-97.1632595857,https://winnipegtransit.com/stops/61271,61271,Southbound Beaumont at Rosemount,0,61271
49.8472897986,,-97.1632246254,https://winnipegtransit.com/stops/61270,61270,Northbound Beaumont at Rosemount,0,61270
49.8425704132,,-97.1690923772,https://winnipegtransit.com/stops/61279,61279,Northbound Seel Station at Seel Station,0,61279
49.8428162137,,-97.1692778217,https://winnipegtransit.com/stops/61278,61278,Northbound Seel Station at Seel Station,0,61278
49.7936937214,,-97.1449799974,https://winnipegtransit.com/stops/60050,60050,Southbound Dalhousie at Killarney,0,60050
49.7948842774,,-97.1457404502,https://winnipegtransit.com/stops/60051,60051,Northbound Dalhousie at Purdue,0,60051
49.7955527611,,-97.1464791853,https://winnipegtransit.com/stops/60052,60052,Southbound Dalhousie at Purdue,0,60052
49.7931977832,,-97.1460271857,https://winnipegtransit.com/stops/60053,60053,Westbound Killarney at Briar Cliff,0,60053
49.8468197531,,-97.1910633574,https://winnipegtransit.com/stops/60054,60054,Eastbound Wilkes at Brockville,0,60054
49.8466057217,,-97.2610264078,https://winnipegtransit.com/stops/60055,60055,Northbound Laxdal at Brittany,0,60055
49.7924161959,,-97.1483357948,https://winnipegtransit.com/stops/60056,60056,Westbound Killarney at Acadia,0,60056
49.7911189212,,-97.1521506843,https://winnipegtransit.com/stops/60057,60057,Westbound Killarney at Caledon,0,60057
49.7735235865,,-97.1566118316,https://winnipegtransit.com/stops/60058,60058,Southbound Pembina at Cloutier South,0,60058
49.7734632327,,-97.1562113273,https://winnipegtransit.com/stops/60059,60059,Northbound Pembina at Cloutier South,0,60059
49.9017682753,,-97.117037849,https://winnipegtransit.com/stops/10354,10354,Eastbound Higgins at McArthur,0,10354
49.9021591807,,-97.1200585964,https://winnipegtransit.com/stops/10355,10355,Eastbound Higgins at Acores,0,10355
49.902269035,,-97.119622605,https://winnipegtransit.com/stops/10356,10356,Westbound Higgins at Acores,0,10356
49.902631059,,-97.1219760487,https://winnipegtransit.com/stops/10357,10357,Westbound Higgins at Annabella,0,10357
49.9023263108,,-97.1154006467,https://winnipegtransit.com/stops/10351,10351,Eastbound Higgins at Point Douglas,0,10351
49.9022877076,,-97.115792093,https://winnipegtransit.com/stops/10352,10352,Westbound Higgins at Boyle,0,10352
49.9041555394,,-97.1311365322,https://winnipegtransit.com/stops/10353,10353,Westbound Higgins at Maple,0,10353
49.9024906157,,-97.1221904009,https://winnipegtransit.com/stops/10358,10358,Eastbound Higgins at Annabella,0,10358
49.9036763297,,-97.1265313278,https://winnipegtransit.com/stops/10359,10359,Westbound Higgins at Waterfront,0,10359
49.8849070371,,-97.141806018,https://winnipegtransit.com/stops/10686,10686,Southbound Carlton at Assiniboine,0,10686
49.8842648707,,-97.1427077163,https://winnipegtransit.com/stops/10687,10687,Northbound Edmonton at Assiniboine,0,10687
49.8865675209,,-97.1427028669,https://winnipegtransit.com/stops/10685,10685,Southbound Carlton at Broadway,0,10685
49.8927470145,,-97.1556374611,https://winnipegtransit.com/stops/10530,10530,Eastbound Ellice at Langside,0,10530
49.8929211412,,-97.1558396788,https://winnipegtransit.com/stops/10531,10531,Westbound Ellice at Langside,0,10531
49.892861125,,-97.1537673311,https://winnipegtransit.com/stops/10533,10533,Westbound Ellice at Spence,0,10533
49.8934491843,,-97.1505980871,https://winnipegtransit.com/stops/10534,10534,Northbound Vaughan at Ellice,0,10534
49.8933376741,,-97.1520643564,https://winnipegtransit.com/stops/10535,10535,Westbound Ellice at Balmoral,0,10535
49.8948231201,,-97.1498911187,https://winnipegtransit.com/stops/10536,10536,Northbound Kennedy at Qu'Appelle,0,10536
49.8962111904,,-97.1506317368,https://winnipegtransit.com/stops/10538,10538,Northbound Kennedy at Sargent,0,10538
49.8951355593,,-96.997851519,https://winnipegtransit.com/stops/40049,40049,Westbound Regent at Wabasha,0,40049
49.89501405,,-96.9981071907,https://winnipegtransit.com/stops/40048,40048,Eastbound Regent at Wabasha,0,40048
49.9053876554,,-96.9982348451,https://winnipegtransit.com/stops/40045,40045,Eastbound McMeans at Wabasha,0,40045
49.9055225672,,-96.9977139388,https://winnipegtransit.com/stops/40044,40044,Westbound McMeans at Wabasha,0,40044
49.9007170647,,-96.9975926032,https://winnipegtransit.com/stops/40047,40047,Eastbound Kildare at Wabasha,0,40047
49.9008259673,,-96.9986882674,https://winnipegtransit.com/stops/40046,40046,Westbound Kildare at Wabasha,0,40046
49.9007775961,,-96.9938160874,https://winnipegtransit.com/stops/40041,40041,Eastbound Kildare at Leola,0,40041
49.9008975848,,-96.9939921514,https://winnipegtransit.com/stops/40040,40040,Westbound Kildare at Leola,0,40040
49.8950322625,,-96.9929264934,https://winnipegtransit.com/stops/40043,40043,Eastbound Regent at Leola,0,40043
49.8951570145,,-96.9938960403,https://winnipegtransit.com/stops/40042,40042,Westbound Regent at Leola,0,40042
49.918848968,,-97.0651610138,https://winnipegtransit.com/stops/40269,40269,Southbound Louelda at Antrim,0,40269
49.9198434052,,-97.0643828263,https://winnipegtransit.com/stops/40268,40268,Southbound Louelda at Tomlinson,0,40268
49.9022132862,,-97.0795164577,https://winnipegtransit.com/stops/40261,40261,Eastbound Talbot at Keenleyside,0,40261
49.9022298614,,-97.0788891055,https://winnipegtransit.com/stops/40260,40260,Westbound Talbot at Keenleyside,0,40260
49.9003276575,,-97.0802597828,https://winnipegtransit.com/stops/40263,40263,Eastbound Nairn at Keenleyside,0,40263
49.9004000189,,-97.0797416484,https://winnipegtransit.com/stops/40262,40262,Westbound Nairn at Keenleyside,0,40262
49.9255206251,,-97.0596271031,https://winnipegtransit.com/stops/40265,40265,Eastbound McLeod at Louelda,0,40265
49.9255701246,,-97.0593603828,https://winnipegtransit.com/stops/40264,40264,Westbound McLeod at Louelda,0,40264
49.9220833902,,-97.062245064,https://winnipegtransit.com/stops/40267,40267,Southbound Louelda at Tu Pelo,0,40267
49.9240387173,,-97.0602996545,https://winnipegtransit.com/stops/40266,40266,Southbound Louelda at Stacey,0,40266
49.8959264632,,-97.3115681905,https://winnipegtransit.com/stops/20335,20335,Eastbound Lumsden at Galbraith,0,20335
49.8961193878,,-97.3130792233,https://winnipegtransit.com/stops/20334,20334,Westbound Lumsden at Sabine,0,20334
49.895992664,,-97.309324047,https://winnipegtransit.com/stops/20337,20337,Westbound Lumsden at Lake Ridge West,0,20337
49.8958673579,,-97.3099828728,https://winnipegtransit.com/stops/20336,20336,Eastbound Lumsden at Kay,0,20336
49.89138386,,-97.3121722587,https://winnipegtransit.com/stops/20331,20331,Westbound Hamilton at Redfern,0,20331
49.8915707543,,-97.3083368712,https://winnipegtransit.com/stops/20330,20330,Eastbound Hamilton at Chapman,0,20330
49.8914972811,,-97.3137833852,https://winnipegtransit.com/stops/20333,20333,Westbound Hamilton at Knox,0,20333
49.891249952,,-97.31285916,https://winnipegtransit.com/stops/20332,20332,Eastbound Hamilton at Knox,0,20332
49.7917049625,,-97.1943959281,https://winnipegtransit.com/stops/62104,62104,Westbound South Town at Kenaston,0,62104
49.7943852791,,-97.1995764934,https://winnipegtransit.com/stops/62105,62105,Westbound Bison at Park West,0,62105
49.7967063607,,-97.1800498107,https://winnipegtransit.com/stops/62100,62100,Northbound Frontier at Joe Keeper,0,62100
49.7989574152,,-97.1819109528,https://winnipegtransit.com/stops/62101,62101,Northbound Frontier at Cadboro,0,62101
49.7966453979,,-97.1801771608,https://winnipegtransit.com/stops/62102,62102,Southbound Frontier at Joe Keeper,0,62102
49.7928907234,,-97.187390448,https://winnipegtransit.com/stops/62103,62103,Westbound Joe Keeper at Ruth,0,62103
49.951168035,,-97.1409297615,https://winnipegtransit.com/stops/30378,30378,Eastbound Leila at Garden Park,0,30378
49.9495878151,,-97.1215999004,https://winnipegtransit.com/stops/30370,30370,Eastbound Templeton at Sly,0,30370
49.9549536565,,-97.1532199212,https://winnipegtransit.com/stops/30371,30371,Eastbound Leila at Leila Loop,0,30371
49.9538854537,,-97.1494129791,https://winnipegtransit.com/stops/30372,30372,Eastbound Leila at Watson East,0,30372
49.9503550181,,-97.1239817321,https://winnipegtransit.com/stops/30373,30373,Eastbound Templeton at McGregor,0,30373
49.9529221887,,-97.1482370334,https://winnipegtransit.com/stops/30374,30374,Southbound McPhillips at Leila,0,30374
49.9526840078,,-97.1479673499,https://winnipegtransit.com/stops/30375,30375,Northbound McPhillips at Leila,0,30375
49.943763521,,-97.175322106,https://winnipegtransit.com/stops/30572,30572,Eastbound Inkster at Sheppard,0,30572
49.9311394826,,-97.209632418,https://winnipegtransit.com/stops/31029,31029,Eastbound Selkirk at Bentley,0,31029
49.9291565936,,-97.1302671914,https://winnipegtransit.com/stops/31028,31028,Southbound Salter at Inkster,0,31028
49.945518665,,-97.1799671266,https://winnipegtransit.com/stops/30573,30573,Westbound Inkster at Hutchings,0,30573
49.929533915,,-97.1296812817,https://winnipegtransit.com/stops/31023,31023,Northbound Salter at Inkster,0,31023
49.9563152831,,-97.195663061,https://winnipegtransit.com/stops/31022,31022,Eastbound Waterford Green at Dr. Jose Rizal,0,31022
49.9327636837,,-97.1719611678,https://winnipegtransit.com/stops/31021,31021,Southbound Fife at Mountain,0,31021
49.9331333296,,-97.1714455089,https://winnipegtransit.com/stops/31020,31020,Northbound Fife at Mountain,0,31020
49.9440587914,,-97.1201144803,https://winnipegtransit.com/stops/31027,31027,Southbound Salter at Leila,0,31027
49.9467966785,,-97.1197709184,https://winnipegtransit.com/stops/31026,31026,Southbound Salter at Cork,0,31026
49.9470597966,,-97.1193564296,https://winnipegtransit.com/stops/31025,31025,Northbound Salter at Cork,0,31025
49.9449790908,,-97.1202877345,https://winnipegtransit.com/stops/31024,31024,Northbound Salter at Leila,0,31024
49.9461908155,,-97.18267385,https://winnipegtransit.com/stops/30578,30578,Southbound Mandalay at Inkster,0,30578
49.8817162883,,-97.2756761995,https://winnipegtransit.com/stops/20293,20293_merged_67047,Westbound Pearl McGonigal at Grace Hospital (83),0,20293
49.9232758825,,-97.2065939109,https://winnipegtransit.com/stops/20022,20022,Northbound King Edward at Pacific,0,20022
49.9459964657,,-97.2135420958,https://winnipegtransit.com/stops/30959,30959,Westbound Inkster at Groverdale,0,30959
49.9642263975,,-97.1798612407,https://winnipegtransit.com/stops/30954,30954,Northbound Strasbourg at Basel,0,30954
49.9641676313,,-97.1801283984,https://winnipegtransit.com/stops/30955,30955,Southbound Strasbourg at Leila,0,30955
49.9651762792,,-97.1842179471,https://winnipegtransit.com/stops/30956,30956,Westbound Leila at Sava,0,30956
49.9650021998,,-97.1840153301,https://winnipegtransit.com/stops/30957,30957,Eastbound Leila at Dunham,0,30957
49.9674593596,,-97.1789583545,https://winnipegtransit.com/stops/30950,30950,Southbound Strasbourg at Thorn,0,30950
49.9677533851,,-97.1787799137,https://winnipegtransit.com/stops/30951,30951,Northbound Strasbourg at Thorn,0,30951
49.9657057395,,-97.1789827016,https://winnipegtransit.com/stops/30952,30952,Southbound Strasbourg at Morava,0,30952
49.9658278681,,-97.1787410319,https://winnipegtransit.com/stops/30953,30953,Northbound Strasbourg at Tessler,0,30953
49.8964105571,,-97.1211175137,https://winnipegtransit.com/stops/50844,50844,Westbound Aubert at Des Intrepides,0,50844
49.8883500077,,-97.1149705086,https://winnipegtransit.com/stops/50845,50845,Westbound Hamel at St. Jean Baptiste,0,50845
49.8882996327,,-97.1185087777,https://winnipegtransit.com/stops/50846,50846,Westbound Hamel at Aulneau,0,50846
49.8882367677,,-97.1135409077,https://winnipegtransit.com/stops/50847,50847,Eastbound Hamel at de la Morenie,0,50847
49.8284131895,,-97.0857784021,https://winnipegtransit.com/stops/50840,50840,Northbound St Anne's at Novavista North,0,50840
49.8958599607,,-97.1149145852,https://winnipegtransit.com/stops/50841,50841,Northbound Thibault at Notre Dame,0,50841
49.833328575,,-97.0536683759,https://winnipegtransit.com/stops/50842,50842,Westbound Island Lakes at De Caigny,0,50842
49.8965692001,,-97.1164883028,https://winnipegtransit.com/stops/50843,50843,Northbound Thibault at La Verendrye,0,50843
49.8363876252,,-97.0920557053,https://winnipegtransit.com/stops/50848,50848,Southbound St Anne's at Richfield,0,50848
49.8408808162,,-97.0722533984,https://winnipegtransit.com/stops/50849,50849,Southbound Lakewood at Abinojii Mikanah,0,50849
49.8934574536,,-97.1043981471,https://winnipegtransit.com/stops/50156,50156,Southbound Archibald at Plinguet,0,50156
49.8958066368,,-97.105587156,https://winnipegtransit.com/stops/50157,50157,Southbound Archibald at Provencher,0,50157
49.8901153332,,-97.1029975643,https://winnipegtransit.com/stops/50154,50154,Southbound Archibald at Messier North,0,50154
49.8925008156,,-97.1036559049,https://winnipegtransit.com/stops/50155,50155,Northbound Archibald at Plinguet,0,50155
49.8902112508,,-97.102812804,https://winnipegtransit.com/stops/50153,50153,Northbound Archibald at Messier North,0,50153
49.8874721228,,-97.1025303825,https://winnipegtransit.com/stops/50150,50150,Northbound Archibald at Kavanagh North,0,50150
49.8557089432,,-97.1013400736,https://winnipegtransit.com/stops/50676,50676,Southbound Seagrim at Alpine,0,50676
49.8748384414,,-97.2614599806,https://winnipegtransit.com/stops/20268,20268_merged_67106,Eastbound Portage at Moray,0,20268
49.8092169569,,-97.2041273946,https://winnipegtransit.com/stops/60900,60900,Westbound Columbia at Westmoreland,0,60900
49.8292557542,,-97.095409483,https://winnipegtransit.com/stops/50674,50674,Northbound Ashworth at Gretna,0,50674
49.828392112,,-97.1947266101,https://winnipegtransit.com/stops/60906,60906,Southbound Lindenwood at Wethersfield,0,60906
49.8242393623,,-97.1725653317,https://winnipegtransit.com/stops/62030,62030,Southbound Newmarket at Chevrier,0,62030
49.8283002625,,-97.1946048836,https://winnipegtransit.com/stops/60905,60905,Northbound Lindenwood at Wethersfield,0,60905
49.8196430163,,-97.1674554951,https://winnipegtransit.com/stops/62031,62031,Southbound Newmarket at Ballantrae,0,62031
49.8605704389,,-97.2064957229,https://winnipegtransit.com/stops/60429,60429,Southbound Kenaston at Carpathia South,0,60429
49.8590434562,,-97.2066357476,https://winnipegtransit.com/stops/60428,60428,Southbound Kenaston at Grant North,0,60428
49.8541343454,,-97.2067757433,https://winnipegtransit.com/stops/60421,60421,Northbound Kenaston at Boulton North,0,60421
49.8540314211,,-97.2070995403,https://winnipegtransit.com/stops/60420,60420,Southbound Kenaston at Boulton North,0,60420
49.8561958247,,-97.2068803029,https://winnipegtransit.com/stops/60423,60423,Southbound Kenaston at Grant South,0,60423
49.8567300461,,-97.2065266096,https://winnipegtransit.com/stops/60422,60422,Northbound Kenaston at Grant South,0,60422
49.7890250636,,-97.1584826297,https://winnipegtransit.com/stops/60425,60425,Westbound Kirkbridge at Pembina West,0,60425
49.8571511749,,-97.2075823483,https://winnipegtransit.com/stops/60424,60424,Eastbound Grant at Kenaston West,0,60424
49.8579873336,,-97.2063965765,https://winnipegtransit.com/stops/60427,60427,Northbound Kenaston at Grant North,0,60427
49.857260041,,-97.2047399826,https://winnipegtransit.com/stops/60426,60426,Westbound Grant at Kenaston East,0,60426
49.8908671801,,-97.2176669694,https://winnipegtransit.com/stops/20108,20108,Northbound Ferry at St. Matthews,0,20108
49.8983524491,,-97.2148428491,https://winnipegtransit.com/stops/20109,20109,Westbound Sargent at Ferry East,0,20109
49.8940776311,,-97.2176183107,https://winnipegtransit.com/stops/20106,20106,Southbound Ferry at Ellice,0,20106
49.8914904795,,-97.2178389331,https://winnipegtransit.com/stops/20107,20107,Southbound Ferry at St. Matthews,0,20107
49.8941105911,,-97.2174221603,https://winnipegtransit.com/stops/20104,20104,Northbound Ferry at Ellice,0,20104
49.8981791677,,-97.2094462732,https://winnipegtransit.com/stops/20105,20105,Westbound Sargent at Berry,0,20105
49.8945790763,,-97.2151352625,https://winnipegtransit.com/stops/20102,20102,Eastbound Ellice at Roseberry,0,20102
49.8947931665,,-97.2167704194,https://winnipegtransit.com/stops/20103,20103,Westbound Ellice at Ferry,0,20103
49.8945061925,,-97.2127430024,https://winnipegtransit.com/stops/20100,20100,Eastbound Ellice at Marjorie,0,20100
49.8947331692,,-97.2146283064,https://winnipegtransit.com/stops/20101,20101,Westbound Ellice at Roseberry,0,20101
49.8648374025,,-97.0783551711,https://winnipegtransit.com/stops/50070,50070_merged_67012,Southbound Autumnwood at Echo,0,50070
49.9067502974,,-96.9793338936,https://winnipegtransit.com/stops/41055,41055,Southbound Redonda at Bramwell,0,41055
49.9068737076,,-96.9791894558,https://winnipegtransit.com/stops/41054,41054,Northbound Redonda at Bramwell,0,41054
49.9035816957,,-96.9792016895,https://winnipegtransit.com/stops/41057,41057,Southbound Redonda at St. Martin,0,41057
49.9052992461,,-96.9791716923,https://winnipegtransit.com/stops/41056,41056,Southbound Redonda at McMeans,0,41056
49.8933462429,,-97.0156509279,https://winnipegtransit.com/stops/41051,41051,Eastbound Pandora at Hoka,0,41051
49.8933502478,,-97.0242976043,https://winnipegtransit.com/stops/41050,41050,Eastbound Pandora at Plessis,0,41050
49.9057095621,,-96.9789734839,https://winnipegtransit.com/stops/41053,41053,Northbound Redonda at McMeans,0,41053
49.9034973962,,-96.9790102337,https://winnipegtransit.com/stops/41052,41052,Northbound Redonda at St. Martin,0,41052
49.9006528318,,-97.0252665728,https://winnipegtransit.com/stops/41059,41059,Northbound Plessis at Kildare,0,41059
49.8954168059,,-97.0252157721,https://winnipegtransit.com/stops/41058,41058,Northbound Plessis at Regent,0,41058
49.9312474973,,-97.0492803305,https://winnipegtransit.com/stops/40900,40900,Westbound Springfield at Spring Valley West,0,40900
49.9316513251,,-97.0449580898,https://winnipegtransit.com/stops/40901,40901,Southbound De Vries at Springfield,0,40901
49.9316477974,,-97.0447492066,https://winnipegtransit.com/stops/40902,40902,Northbound De Vries at Springfield,0,40902
49.9021877529,,-97.0494779238,https://winnipegtransit.com/stops/40903,40903,Southbound Peguis at El Tassi,0,40903
49.9027163019,,-97.0488159764,https://winnipegtransit.com/stops/40904,40904,Northbound Peguis at Ivybridge,0,40904
49.9419452784,,-97.0361367386,https://winnipegtransit.com/stops/40905,40905,Southbound De Vries at Bonner,0,40905
49.941613636,,-97.0362059772,https://winnipegtransit.com/stops/40906,40906,Northbound De Vries at Bonner,0,40906
49.9146233921,,-97.1143501376,https://winnipegtransit.com/stops/40907,40907,Northbound Henderson at Johnson N.,0,40907
49.9008478296,,-97.0266790839,https://winnipegtransit.com/stops/40908,40908,Westbound Transcona at Plessis,0,40908
49.9003041003,,-97.0290826242,https://winnipegtransit.com/stops/40909,40909,Westbound Transcona at Bienvenu,0,40909
49.9419332401,,-97.1574392928,https://winnipegtransit.com/stops/30436,30436_merged_67025,Northbound McPhillips at Northgate,0,30436
49.9459113806,,-97.0392790199,https://winnipegtransit.com/stops/40860,40860,Westbound Headmaster at Sunkist,0,40860
49.8509665674,,-97.0777924532,https://winnipegtransit.com/stops/50376,50376_merged_67164,Southbound Lakewood at Edgewater,0,50376
49.9084944313,,-97.0650879201,https://winnipegtransit.com/stops/40689,40689,Northbound Panet at Girdwood,0,40689
49.9464361377,,-97.0862331806,https://winnipegtransit.com/stops/40864,40864,Westbound Whellams at Henderson,0,40864
49.8861318795,,-97.0277387209,https://winnipegtransit.com/stops/40685,40685,Westbound Dugald at Plessis,0,40685
49.9440633728,,-97.0518291492,https://winnipegtransit.com/stops/40684,40684,Northbound Gateway at Ragsdill,0,40684
49.9391707339,,-97.1154546226,https://winnipegtransit.com/stops/30033,30033,Northbound Main at Burrin,0,30033
49.9406266888,,-97.1148263699,https://winnipegtransit.com/stops/30032,30032,Southbound Main at Forrest,0,30032
49.9401664221,,-97.1147328366,https://winnipegtransit.com/stops/30031,30031,Northbound Main at Royal,0,30031
49.9415549952,,-97.1143859361,https://winnipegtransit.com/stops/30030,30030,Eastbound Partridge at Main,0,30030
49.9359545105,,-97.1184649009,https://winnipegtransit.com/stops/30037,30037,Southbound Main at Hartford,0,30037
49.937311987,,-97.1173110306,https://winnipegtransit.com/stops/30036,30036,Southbound Main at Kilbride,0,30036
49.937553268,,-97.1166605391,https://winnipegtransit.com/stops/30035,30035,Northbound Main at Kilbride,0,30035
49.9391609151,,-97.1159567425,https://winnipegtransit.com/stops/30034,30034,Southbound Main at Burrin,0,30034
49.9348208493,,-97.1195542492,https://winnipegtransit.com/stops/30039,30039,Southbound Main at St. Anthony,0,30039
49.9359299681,,-97.1180617073,https://winnipegtransit.com/stops/30038,30038,Northbound Main at Hartford,0,30038
49.9443668869,,-97.0516914554,https://winnipegtransit.com/stops/40676,40676,Southbound Gateway at Ragsdill,0,40676
49.9425094668,,-97.0466232013,https://winnipegtransit.com/stops/40674,40674,Westbound Ragsdill at Clearview,0,40674
49.9119941639,,-97.0635131242,https://winnipegtransit.com/stops/40675,40675,Westbound Concordia at Molson,0,40675
49.9083523621,,-97.0695088808,https://winnipegtransit.com/stops/40672,40672,Westbound Munroe at Prevette,0,40672
49.9088540754,,-97.0710070497,https://winnipegtransit.com/stops/40673,40673,Westbound Munroe at Molson,0,40673
49.9172596201,,-97.0583427776,https://winnipegtransit.com/stops/40670,40670,Northbound Molson at Timberline,0,40670
49.9087808836,,-97.06985391,https://winnipegtransit.com/stops/40671,40671,Southbound Molson at Munroe,0,40671
49.9349090959,,-97.0643226902,https://winnipegtransit.com/stops/40679,40679,Northbound Raleigh at Eade,0,40679
49.8575646048,,-97.0867553916,https://winnipegtransit.com/stops/50309,50309,Southbound Archibald at Comanche,0,50309
49.8574887826,,-97.0865218545,https://winnipegtransit.com/stops/50308,50308,Northbound Archibald at Comanche,0,50308
49.8527579732,,-97.1117508002,https://winnipegtransit.com/stops/50303,50303,Westbound Fermor at St. Mary's,0,50303
49.9521121608,,-97.1453962937,https://winnipegtransit.com/stops/30890,30890_merged_67046,Southbound Garden City Terminal at Garden City Centre (17 Seven Oaks 77 PP 334),0,30890
49.8515555233,,-97.1141348656,https://winnipegtransit.com/stops/50301,50301,Eastbound Fermor at Killarney,0,50301
49.8516863589,,-97.1144358354,https://winnipegtransit.com/stops/50300,50300,Westbound Fermor at Killarney,0,50300
49.8445757336,,-97.0511858198,https://winnipegtransit.com/stops/50307,50307,Westbound Capston at Garwick,0,50307
49.8444522275,,-97.0513298861,https://winnipegtransit.com/stops/50306,50306,Eastbound Capston at Mount Laurel,0,50306
49.8540991265,,-97.1073995192,https://winnipegtransit.com/stops/50305,50305,Westbound Fermor at St Thomas,0,50305
49.8535817117,,-97.1082127454,https://winnipegtransit.com/stops/50304,50304,Eastbound Fermor at St Thomas,0,50304
49.8447807327,,-97.258101295,https://winnipegtransit.com/stops/61071,61071,Eastbound Ridgewood at Elmhurst,0,61071
49.8453238905,,-97.2613227834,https://winnipegtransit.com/stops/61070,61070,Southbound Laxdal at Ridgewood,0,61070
49.8500738142,,-97.2571737178,https://winnipegtransit.com/stops/61073,61073,Northbound Elmhurst at Beiko North,0,61073
49.8480077614,,-97.2573593133,https://winnipegtransit.com/stops/61072,61072,Northbound Elmhurst at Beiko South,0,61072
49.8533484223,,-97.2542178268,https://winnipegtransit.com/stops/61075,61075,Northbound Cathcart at Beauchemin,0,61075
49.8521933736,,-97.2563601438,https://winnipegtransit.com/stops/61074,61074,Eastbound Eldridge at Elmhurst,0,61074
49.8581359472,,-97.2537670157,https://winnipegtransit.com/stops/61077,61077,Northbound Cathcart at Grant,0,61077
49.8549382013,,-97.2540631486,https://winnipegtransit.com/stops/61076,61076,Northbound Cathcart at Chalfont,0,61076
49.8533355923,,-97.2834339317,https://winnipegtransit.com/stops/61079,61079,Westbound Eldridge at Dieppe,0,61079
49.8526889374,,-97.2659972608,https://winnipegtransit.com/stops/61078,61078,Westbound Eldridge at Haney,0,61078
49.8386018036,,-97.1792422124,https://winnipegtransit.com/stops/60212,60212,Northbound Waverley at Seel,0,60212
49.8396342884,,-97.1796902214,https://winnipegtransit.com/stops/60213,60213,Southbound Waverley at Lindenwood,0,60213
49.8360940729,,-97.1799344216,https://winnipegtransit.com/stops/60210,60210,Southbound Waverley at Lindenwood South,0,60210
49.8357020481,,-97.1796014588,https://winnipegtransit.com/stops/60211,60211,Northbound Waverley at Buffalo North,0,60211
49.8466408241,,-97.1790792759,https://winnipegtransit.com/stops/60216,60216,Northbound Waverley at Wilkes,0,60216
49.8480912341,,-97.1792195224,https://winnipegtransit.com/stops/60217,60217,Southbound Waverley at Wilkes,0,60217
49.8409492222,,-97.1792235736,https://winnipegtransit.com/stops/60214,60214,Northbound Waverley at Willson,0,60214
49.8407227044,,-97.1796910703,https://winnipegtransit.com/stops/60215,60215,Southbound Waverley at Willson,0,60215
49.834434151,,-97.1767703409,https://winnipegtransit.com/stops/60218,60218,Westbound Buffalo at Beaver,0,60218
49.8355776244,,-97.1734174136,https://winnipegtransit.com/stops/60219,60219,Westbound Buffalo at Otter,0,60219
49.8976794842,,-97.193492734,https://winnipegtransit.com/stops/10453,10453,Westbound Sargent at Sanford,0,10453
49.7788609811,,-97.189858769,https://winnipegtransit.com/stops/61299,61299,Westbound Waverley at Kenaston,0,61299
49.7810686663,,-97.1832196614,https://winnipegtransit.com/stops/61298,61298,Southbound John Angus at Waverley,0,61298
49.7778515012,,-97.193757992,https://winnipegtransit.com/stops/61295,61295,Westbound Waverley at Eaglewood,0,61295
49.8388731598,,-97.1810539898,https://winnipegtransit.com/stops/61294,61294,Westbound Lindenwood at Waverley West,0,61294
49.7788207584,,-97.1890129201,https://winnipegtransit.com/stops/61297,61297,Eastbound Waverley at Kenaston,0,61297
49.7777632218,,-97.1932889927,https://winnipegtransit.com/stops/61296,61296,Eastbound Waverley at Eaglewood East,0,61296
49.8404836004,,-97.1730795381,https://winnipegtransit.com/stops/61291,61291,Westbound Seel at Fennell,0,61291
49.8411994315,,-97.1705628715,https://winnipegtransit.com/stops/61290,61290,Eastbound Seel at Fennell,0,61290
49.8387923608,,-97.1787760855,https://winnipegtransit.com/stops/61293,61293,Westbound Seel at Waverley,0,61293
49.8393482553,,-97.1763768772,https://winnipegtransit.com/stops/61292,61292,Westbound Seel at Otter,0,61292
49.89741252,,-97.1850502339,https://winnipegtransit.com/stops/10459,10459,Westbound Sargent at Clifton,0,10459
49.8975010683,,-97.1878319158,https://winnipegtransit.com/stops/10458,10458,Westbound Sargent at Valour,0,10458
49.910240518,,-97.1594831211,https://winnipegtransit.com/stops/10332,10332,Westbound Logan at Tecumseh,0,10332
49.9094930167,,-97.1577287265,https://winnipegtransit.com/stops/10333,10333,Eastbound Logan at Nora,0,10333
49.9109602844,,-97.1623250809,https://winnipegtransit.com/stops/10330,10330,Eastbound Logan at Arlington,0,10330
49.9103634362,,-97.1604255977,https://winnipegtransit.com/stops/10331,10331,Eastbound Logan at Beacon,0,10331
49.9089348328,,-97.1554378877,https://winnipegtransit.com/stops/10336,10336,Westbound Logan at Lulu,0,10336
49.9082911494,,-97.1534289304,https://winnipegtransit.com/stops/10337,10337,Westbound Logan at Chambers,0,10337
49.9095879144,,-97.1574743968,https://winnipegtransit.com/stops/10334,10334,Westbound Logan at Nora,0,10334
49.9088401614,,-97.1557061377,https://winnipegtransit.com/stops/10335,10335,Eastbound Logan at Lulu,0,10335
49.9078934978,,-97.1527477137,https://winnipegtransit.com/stops/10338,10338,Eastbound Logan at Sherbrook,0,10338
49.9071549816,,-97.1504360488,https://winnipegtransit.com/stops/10339,10339,Eastbound Logan at Gunnell,0,10339
49.8841911307,,-97.3130078067,https://winnipegtransit.com/stops/20309,20309_merged_67067,"Eastbound Unicity at Unicity Terminal (66, 98)",0,20309
49.9384327195,,-97.1944636489,https://winnipegtransit.com/stops/30677,30677,Eastbound Burrows at Keewatin East,0,30677
49.905337139,,-97.0057299524,https://winnipegtransit.com/stops/40068,40068,Eastbound McMeans at Bond,0,40068
49.8991674439,,-97.0026561118,https://winnipegtransit.com/stops/40063,40063,Southbound Day at Harvard,0,40063
49.9006398112,,-97.0030130889,https://winnipegtransit.com/stops/40062,40062,Eastbound Kildare at Day,0,40062
49.9007690149,,-97.0032027208,https://winnipegtransit.com/stops/40061,40061,Westbound Kildare at Day,0,40061
49.905461417,,-97.0051120136,https://winnipegtransit.com/stops/40067,40067,Westbound McMeans at Bond,0,40067
49.8949791733,,-97.0028569079,https://winnipegtransit.com/stops/40066,40066,Eastbound Regent at Day,0,40066
49.8951228563,,-97.002321841,https://winnipegtransit.com/stops/40065,40065,Westbound Regent at Day,0,40065
49.8963697863,,-97.0026463159,https://winnipegtransit.com/stops/40064,40064,Southbound Day at Yale,0,40064
49.9518725703,,-97.1456006686,https://winnipegtransit.com/stops/30379,30379_merged_67145,Southbound Garden City Hub at Garden City Centre,0,30379
49.8977885206,,-97.2852546459,https://winnipegtransit.com/stops/20313,20313,Westbound Quail Ridge at Quail West,0,20313
49.8977009634,,-97.2829879824,https://winnipegtransit.com/stops/20312,20312,Westbound Quail Ridge at Quail Central,0,20312
49.8985370679,,-97.2817468112,https://winnipegtransit.com/stops/20311,20311,Westbound Quail Ridge at Quail East,0,20311
49.8948431112,,-97.2880185583,https://winnipegtransit.com/stops/20315,20315,Eastbound Hamilton at Valley View,0,20315
49.8948030979,,-97.2883541531,https://winnipegtransit.com/stops/20314,20314,Westbound Hamilton at Valley View,0,20314
49.8930362728,,-97.2929696805,https://winnipegtransit.com/stops/20319,20319,Westbound Hamilton at Crestview Park,0,20319
49.8928166093,,-97.2927128839,https://winnipegtransit.com/stops/20318,20318,Eastbound Hamilton at Parkhill,0,20318
49.8469929124,,-97.2313694135,https://winnipegtransit.com/stops/62166,62166,Northbound Shaftesbury at Shaftesbury Park,0,62166
49.9236987681,,-97.0604108294,https://winnipegtransit.com/stops/40247,40247,Northbound Louelda at Stacey,0,40247
49.9252510747,,-97.0591084657,https://winnipegtransit.com/stops/40246,40246,Northbound Louelda at McLeod,0,40246
49.9015386967,,-97.0757274307,https://winnipegtransit.com/stops/40245,40245,Eastbound Talbot at Stapleton,0,40245
49.9015448737,,-97.0750169416,https://winnipegtransit.com/stops/40244,40244,Westbound Talbot at Stapleton,0,40244
49.908634626,,-97.0707929509,https://winnipegtransit.com/stops/40243,40243,Eastbound Munroe at Molson,0,40243
49.905918066,,-97.0707899167,https://winnipegtransit.com/stops/40242,40242,Southbound Prevette at Keenleyside,0,40242
49.9056870752,,-97.070423089,https://winnipegtransit.com/stops/40241,40241,Westbound Keenleyside at Prevette,0,40241
49.9079473242,,-97.0689539969,https://winnipegtransit.com/stops/40240,40240,Northbound Prevette at Munroe,0,40240
49.9214337164,,-97.0626612125,https://winnipegtransit.com/stops/40249,40249,Northbound Louelda at Meighen,0,40249
49.9225661315,,-97.061529086,https://winnipegtransit.com/stops/40248,40248,Northbound Louelda at Tu Pelo,0,40248
49.9550508475,,-97.0888054806,https://winnipegtransit.com/stops/30938,30938,Northbound Rivergrove at Attridge,0,30938
49.9569129916,,-97.0882716512,https://winnipegtransit.com/stops/30939,30939,Westbound Red River at Sandalwood,0,30939
49.9530565368,,-97.0911429104,https://winnipegtransit.com/stops/30932,30932,Southbound Rivergrove at Grifindale,0,30932
49.9532859757,,-97.0930577296,https://winnipegtransit.com/stops/30933,30933,Westbound Ridgecrest at West Kildonan,0,30933
49.9567230703,,-97.0882094623,https://winnipegtransit.com/stops/30930,30930,Eastbound Red River at Knotwood,0,30930
49.9552126514,,-97.0887990741,https://winnipegtransit.com/stops/30931,30931,Southbound Rivergrove at Attridge,0,30931
49.953459938,,-97.093789746,https://winnipegtransit.com/stops/30936,30936,Eastbound Ridgecrest at West Kildonan,0,30936
49.953168572,,-97.0908457147,https://winnipegtransit.com/stops/30937,30937,Northbound Rivergrove at Grifindale,0,30937
49.9549354484,,-97.0970914319,https://winnipegtransit.com/stops/30934,30934,Westbound Ridgecrest at Main,0,30934
49.9549510135,,-97.0980388552,https://winnipegtransit.com/stops/30935,30935,Northbound Main at Ridgecrest,0,30935
49.9277756056,,-97.1188670205,https://winnipegtransit.com/stops/31041,31041,Eastbound Matheson at Cochrane,0,31041
49.8501727501,,-97.0470376259,https://winnipegtransit.com/stops/50823,50823,Westbound Royal Mint at Morning Glory West,0,50823
49.8364548915,,-97.062541094,https://winnipegtransit.com/stops/50792,50792,Northbound Desjardins at Myles Robinson,0,50792
49.9278911091,,-97.1187789204,https://winnipegtransit.com/stops/31042,31042,Westbound Matheson at Cochrane,0,31042
49.8153438662,,-97.0869058404,https://winnipegtransit.com/stops/50794,50794,Westbound Warde at Ashworth,0,50794
49.8081880205,,-97.0937068506,https://winnipegtransit.com/stops/50827,50827,Eastbound John Forsyth at Glenham,0,50827
49.8138278805,,-97.0904270003,https://winnipegtransit.com/stops/50796,50796,Westbound Warde at Barlow,0,50796
49.8858994298,,-97.0309919981,https://winnipegtransit.com/stops/50825,50825,Eastbound Dugald at Plessis West,0,50825
49.8078320584,,-97.0961254282,https://winnipegtransit.com/stops/50798,50798,Southbound Highbury at John Forsyth,0,50798
49.8051161234,,-97.0961624906,https://winnipegtransit.com/stops/50799,50799,Southbound Highbury at Southfields,0,50799
49.8084385782,,-97.0936275091,https://winnipegtransit.com/stops/50828,50828,Westbound John Forsyth at Glenham,0,50828
49.8924395946,,-97.1225248694,https://winnipegtransit.com/stops/50829,50829,Northbound St Joseph at Provencher,0,50829
49.8914112437,,-97.1201281896,https://winnipegtransit.com/stops/50178,50178,Southbound Aulneau at Masson,0,50178
49.8915894493,,-97.1200238012,https://winnipegtransit.com/stops/50179,50179,Northbound Aulneau at Masson,0,50179
49.9411152944,,-97.1876872556,https://winnipegtransit.com/stops/30696,30696,Westbound Church at Plymouth East,0,30696
49.8918905653,,-97.1225044056,https://winnipegtransit.com/stops/50174,50174,Eastbound Provencher at St. Joseph,0,50174
49.8924716317,,-97.121173031,https://winnipegtransit.com/stops/50175,50175,Westbound Provencher at Aulneau,0,50175
49.8915324724,,-97.1248295848,https://winnipegtransit.com/stops/50176,50176,Westbound Provencher at Tache,0,50176
49.891383232,,-97.124501209,https://winnipegtransit.com/stops/50177,50177,Eastbound Provencher at Tache,0,50177
49.892813028,,-97.1189319703,https://winnipegtransit.com/stops/50170,50170,Eastbound Provencher at Langevin,0,50170
49.938728669,,-97.204821634,https://winnipegtransit.com/stops/30695,30695,Westbound Burrows at Albina,0,30695
49.8925340109,,-97.1200288666,https://winnipegtransit.com/stops/50173,50173,Eastbound Provencher at Aulneau,0,50173
49.9388076421,,-97.20643538,https://winnipegtransit.com/stops/30694,30694,Westbound Burrows at King Edward,0,30694
49.9385957005,,-97.2061087659,https://winnipegtransit.com/stops/30693,30693,Eastbound Burrows at King Edward,0,30693
49.9384235035,,-97.2037040954,https://winnipegtransit.com/stops/30692,30692,Eastbound Burrows at Albina,0,30692
49.9339740821,,-97.175134478,https://winnipegtransit.com/stops/30691,30691,Eastbound Mountain at Bentall East,0,30691
49.9384266242,,-97.2004288308,https://winnipegtransit.com/stops/30690,30690,Eastbound Burrows at Avery,0,30690
49.8266775529,,-97.1104305744,https://winnipegtransit.com/stops/50884,50884_merged_67021,Eastbound St Vital Centre Terminal at St. Vital Centre (55 via Dakota),0,50884
49.8816364129,,-97.2757486469,https://winnipegtransit.com/stops/20469,20469_merged_67016,"Eastbound Pearl McGonigal at Grace Hospital (82, 83, 98)",0,20469
49.832549911,,-97.1509892442,https://winnipegtransit.com/stops/60155,60155,Southbound Pembina at Chevrier,0,60155
49.8287906949,,-97.152161593,https://winnipegtransit.com/stops/60154,60154,Southbound Pembina at Manahan,0,60154
49.7902878299,,-97.1541830896,https://winnipegtransit.com/stops/60157,60157,Eastbound Killarney at Baylor,0,60157
49.8318355116,,-97.1507522721,https://winnipegtransit.com/stops/60156,60156,Northbound Pembina at Chevrier,0,60156
49.8272666729,,-97.1524838623,https://winnipegtransit.com/stops/60151,60151,Southbound Pembina at Manahan South,0,60151
